order_id,customer_id,date,nearest_warehouse,shopping_cart,order_price,delivery_charges,customer_lat,customer_long,coupon_discount,order_total,season,is_expedited_delivery,distance_to_nearest_warehouse,latest_customer_review,is_happy_customer
ORD353729,ID0580158995,2019-02-12,Thompson,"[('pearTV', 2), ('Thunder line', 2)]",16980,81.58,-37.8000075,144.9371309,0,17061.58,Summer,False,1.6589,five stars good price,True
ORD214948,ID0452381158,2019-11-20,Thompson,"[('iAssist Line', 2), ('Thunder line', 2), ('Lucent 330S', 1), ('Olivia x460', 2)]",12490,67.4,-37.8250103,144.94951709999995,5,11932.9,Spring,True,1.3901,"most certainly would come with a bad battery buy but be warned the battery would come dead or almost dead. asides that , it was a very clean phone to buy",False
ORD099836,ID2759826598,2019-01-18,Nickolson,"[('Universe Note', 2), ('iAssist Line', 1), ('Lucent 330S', 2), ('pearTV', 1)]",17895,96.85,-37.8104114,144.96159680000005,15,15307.6,Summer,True,1.1486,None,True
ORD468917,ID0127638288,2019-06-02,Thompson,"[('iAssist Line', 1), ('Thunder line', 2), ('Universe Note', 1)]",10035,74.52,-37.8095852,144.9467296,15,8604.27,Winter,True,0.345,"beautiful phone that feels great in your hand the p20 lite as it's name suggest is very light in weight, great display and the front facing camera is excellent especially in portrait mode.",True
ORD077630,ID0581718875,2019-03-12,Thompson,"[('Alcon 10', 1), ('Toshika 750', 2), ('pearTV', 1)]",18400,66.66,-37.8051413,144.9344689,25,13866.66,Autumn,False,1.3896,nice phone the phone came early but it was clearly used with all the scratches. i enjoy the phone though and it was easy to transfer over to.,True
ORD379170,ID0711783819,2019-06-29,Bakers,"[('Toshika 750', 2), ('Olivia x460', 2), ('Alcon 10', 1)]",20040,61.24,-37.8164251,144.94587109999995,5,19099.24,Winter,False,0.4307,quality phone for its price. i’ll definitely say the $180 are worth the money. best $180 i have spend. will definitely buy this device again. great screen quality. the camera is great but it can still improve. the battery life is good. what else can you ask for such low price?,True
ORD387333,ID1224854787,2019-07-24,Thompson,"[('Olivia x460', 1), ('Candle Inferno', 1), ('Thunder line', 1)]",3835,63.44,-37.8131872,144.9399364,0,3898.44,Winter,False,2.5363,amazing product. still learnimg all the things it can do,True
ORD179394,ID0579478640,2019-12-16,Thompson,"[('Olivia x460', 1), ('Thunder line', 2), ('Toshika 750', 2), ('Universe Note', 2)]",21125,97.09,-37.8198936,144.9526628,10,19109.59,Summer,True,0.9423,"i like olivia phones i bought this phone as an upgrade to an older olivia phone that had bricked. i'm very happy with every aspect of the new phone. the battery life is crazy good, and is a major reason i bought the phone.",True
ORD008142,ID0368380426,2019-04-23,Nickolson,"[('Candle Inferno', 1), ('pearTV', 2), ('Thunder line', 1), ('Alcon 10', 2)]",33130,84.57,-37.7992351,144.9718408,10,29901.57,Autumn,False,2.1645,five stars love this phone,True
ORD352729,ID0591430026,2019-01-31,Nickolson,"[('Toshika 750', 1), ('Candle Inferno', 1), ('Lucent 330S', 1)]",5980,54.01,-37.8183458,144.96413969999998,5,5735.01,Summer,True,0.4767,"one star bought it for daughter, but they won't activate these anymore",False
ORD491636,ID0113541129,2019-03-08,Nickolson,"[('iAssist Line', 1), ('Thunder line', 2), ('Universe Note', 2)]",13485,78.37,-37.8174021,144.96381269999995,5,12889.12,Autumn,True,0.5218,great! received product as advertised great! received product as advertised. works fine.,True
ORD249626,ID1283634748,2019-12-03,thompson,"[('Olivia x460', 1), ('Lucent 330S', 1), ('Thunder line', 1), ('Alcon 10', 2)]",22535,80.36,-37.80161629999999,144.9585272,10,20361.86,Summer,False,1.5907,five stars the best,True
ORD465615,ID0294627810,2019-11-16,Nickolson,"[('Thunder line', 1), ('Toshika 750', 2), ('Olivia x460', 1)]",12045,70.78,-37.8176644,144.9705281,5,11513.53,Spring,False,0.1346,good for a bargain i am an pear fan. this works for me without buying the newest edition.,True
ORD409339,ID0579405400,2019-01-24,Nickolson,"[('Thunder line', 2), ('iStream', 2)]",4660,93.48,-37.8206485,144.9589885,25,3588.48,Summer,True,0.9565,works great wife loves it,True
ORD413353,ID0594172774,2019-25-04,Nickolson,"[('Lucent 330S', 2), ('Thunder line', 1), ('Alcon 10', 1), ('iAssist Line', 2)]",18040,63.08,-37.8157562,144.9661149,15,15397.08,Autumn,False,0.4372,love my new phone thank you,True
ORD141158,ID1449431504,02-04-2019,Nickolson,"[('iStream', 1), ('Lucent 330S', 2)]",2610,77.57,-37.8152367,144.9747845,25,2035.07,Autumn,True,0.5929,that you're buying the best available. olivia is the all time best smart phone maker.,True
ORD186613,ID2189382624,2019-03-25,Nickolson,"[('pearTV', 1), ('iAssist Line', 2)]",10760,66.86,-37.8083294,144.9772997,5,10288.86,Autumn,True,1.3305,sexy red color love this phone,True
ORD404959,ID6197211197,2019-12-16,Thompson,"[('Universe Note', 1), ('Lucent 330S', 1)]",4680,104.36,-37.8148259,144.9270956,25,3614.36,Autumn,True,1.7728,recommended work good,True
ORD201520,ID0257505387,11-06-2019,Thompson,"[('Thunder line', 1), ('Toshika 750', 2), ('pearTV', 2), ('Candle Inferno', 2)]",24300,71.74,-37.7992886,144.96295690000005,5,23156.74,Winter,False,2.0427,great! there was nothing wrong with the phone at all. it was pretty much new! just put my sim card in and started using it.,True
ORD125720,ID0588236713,2019-11-13,Nickolson,"[('Toshika 750', 1), ('Alcon 10', 1)]",13270,102.08,-37.8111532,144.97339240000005,5,12708.58,Spring,True,0.8946,love my new phone. way better than the s series in my opinion this is the first note i've owned. very pleased.,False
ORD440189,ID0579486531,2019-12-07,Thompson,"[('Thunder line', 2), ('Alcon 10', 1), ('pearTV', 2)]",25930,71.72,-37.8171479,144.9513388,25,19519.22,Summer,False,0.6238,"love this phone! this is my first smart phone and it's perfect. the keyboard rocks, it's quick and has a great camera. now i am not a phone junkie i don't check fb, play games or tweet with my phone. i only use my phone for talking, texting and checking email. i love it!",True
ORD124836,ID0767752593,2019-04-28,nickolson,"[('iStream', 1), ('Universe Note', 2)]",7050,68.33,-37.8049263,144.969378,15,6060.83,Autumn,False,1.5216,"alcon se, last candy bar 6 dings on the back and edges, flat wake button, but perfect screen and function so far. fast fedex thx! zgear case and tempered protection widely available. runs ios 12.2 😇.",True
ORD196547,ID0844455717,2019-11-21,Thompson,"[('iAssist Line', 1), ('Alcon 10', 1)]",11175,87.06,-37.82089860000001,144.9475678,0,11262.06,Spring,False,0.9167,"no stating that this phone has the old style charge ... no stating that this phone has the old style charge connection,, of which is not compatible with the latest. meaning- the cord does nt fit into any other amsung device.",False
ORD449650,ID0493873187,2019-03-08,Nickolson,"[('iStream', 1), ('Candle Inferno', 1), ('Alcon 10', 2)]",18480,69.57,-37.8066912,144.97079490000004,10,16701.57,Autumn,False,1.3296,"i trust them. wow !!! fast, amazing price for great phone !!! amazing that's all ! buying from yall again.",True
ORD267235,ID0319157168,2019-05-12,Nickolson,"[('Universe Note', 1), ('Toshika 750', 1)]",7770,67.04,-37.8075915,144.9684368,10,7060.04,Autumn,False,1.2288,versa_wayz youtuber i'm a youtuber i would like to review this product for my channel !,True
ORD401179,ID0580000017,2019-10-15,Thompson,"[('pearTV', 2), ('Alcon 10', 1)]",21570,108.74,-37.8055815,144.93152680000003,25,16286.24,Spring,False,1.5785,z3 plus perfect product!! too fast!! perfect seller!!,True
ORD382715,ID0591432781,2019-10-11,Nickolson,"[('Candle Inferno', 1), ('Toshika 750', 1)]",4750,74.16,-37.8195027,144.9634796,0,4824.16,Spring,False,0.5434,below par phone phone freezes periodically and blanks out. i like the size and features but that's it. isn't worth the heartache. battery life is below par as well. i cant get a full day on a full battery,True
ORD141007,ID0294627565,2019-04-11,Nickolson,"[('pearTV', 2), ('iStream', 1)]",12770,76.27,-37.8187799,144.96721399999996,5,5701.02,Autumn,True,0.2065,ok. taking screenshot is not comfortable and gets very slow while sharing or browsing.,True
ORD231598,ID3970811103,2019-04-02,Thompson,"[('Lucent 330S', 2), ('iAssist Line', 1)]",4685,60.91,-37.811543,144.94593899999995,25,3574.66,Autumn,True,0.1603,"mal teléfono no bloquea pantalla al hablar, tactil falla, y no tiene la velocidad acorde a sus gigas, pero como lo compre y lo trajeron a uruguay nada puedo hacer",False
ORD179776,ID0307587089,2019-05-27,Nickolson,"[('Universe Note', 2), ('iStream', 1)]",7050,50.84,-37.815267,144.95909,15,6043.34,Autumn,False,0.9917,bad phone very bad and i did not get money back.,True
ORD150948,ID4826905590,2019-10-25,Nickolson,"[('Toshika 750', 1), ('Alcon 10', 2), ('Lucent 330S', 1), ('Olivia x460', 2)]",25900,75.82,-37.8196069,144.9634763,10,23385.82,Spring,False,0.5459,"nice phone poor apps rock solid phone with great camera. even when available some apps are not quite ready.as long as you're not an app collector, this works great.",True
ORD029339,ID0547568737,2019-03-25,Bakers,"[('pearTV', 1), ('iStream', 2), ('Thunder line', 1), ('Alcon 10', 2)]",26690,65.95,-37.8106068,144.98874640000003,5,25421.45,Autumn,True,0.5744,works as promised! came as listed works fine ... about 1 or 2 scratches but i don’t mind... works fine...i had to update it myself but that was ok...go ahead and buy this phone,True
ORD202504,ID3215192047,2019-18-07,Thompson,"[('Toshika 750', 2), ('Olivia x460', 1), ('Lucent 330S', 1), ('Alcon 10', 2)]",28995,45.23,-37.8094828,144.94881750000005,25,21791.48,Winter,False,0.387,hang ups and dials during phone conversations phone dials other numbers in the middle of phone conversations and/or hangs up in the middle of calls often.,False
ORD124455,ID0114583003,2019-10-31,Nickolson,"[('Toshika 750', 1), ('Universe Note', 1), ('Alcon 10', 1), ('Lucent 330S', 1)]",17950,82.43,144.96643500000005,-37.8166344,15,15339.93,Spring,True,0.3503,"i was sent one with a bad esn, very upset i had to send it ... i was sent one with a bad esn, very upset i had to send it back and order another one.",False
ORD237365,ID2906505250,2019-08-19,Thompson,"[('Lucent 330S', 2), ('Toshika 750', 2), ('pearTV', 1), ('Alcon 10', 2)]",35310,62.69,-37.8070765,144.95001499999995,5,33607.19,Winter,True,0.6747,"worst operating system i've ever used this phone, while mechanically sound and has a great battery life, has the worst operating system of any phone i've owned, including flip phones. it's just downright annoying and difficult to use.",False
ORD280812,ID0282825759,2019-09-28,Thompson,"[('pearTV', 2), ('Olivia x460', 1)]",13845,104.82,-37.8019407,144.952397,5,13257.57,Spring,False,1.2833,"great phone this phone is better than i expected, its fast takes great pictures and battery life is amazing. the international gms worked in italy and now in colombia.",True
ORD466554,ID0250933625,2019-10-22,Bakers,"[('pearTV', 2), ('iStream', 2), ('Universe Note', 2), ('iAssist Line', 1)]",22045,111.04,-37.8262541,145.0032041,25,16644.79,Spring,True,1.9408,"overall very good it's kinda glitchy sometimes with apps and i'm a little worried about the charging port. but hey, that's what the insurance is for! overall i'm pretty satisfied. consider that a new phone is like double to triple this so it's not a bad deal",True
ORD051678,ID2143504471,2019-01-24,Thompson,"[('iAssist Line', 2), ('Candle Inferno', 1), ('iStream', 1)]",5030,67.78,-37.8152244,144.9489969,10,4594.78,Summer,False,0.3308,candles are an excellent device for all book lovers,True
ORD231826,ID0775941689,2019-07-10,Nickolson,"[('Thunder line', 2), ('Candle Inferno', 2), ('iStream', 2), ('Universe Note', 1)]",13250,67.83,-37.8066953,144.96250890000005,10,11992.83,Winter,False,1.4623,finger print sensor after the update is much better. great phone for the price. nice screen and pic.,True
ORD363059,ID0361268957,2019-10-20,Bakers,"[('Universe Note', 2), ('Lucent 330S', 1)]",8130,70.53,-37.7989968,144.97788219999995,25,6168.03,Spring,True,1.9565,have have have,False
ORD252393,ID0589664981,2019-07-09,Thompson,"[('iAssist Line', 1), ('Olivia x460', 1)]",7550,52.64,-37.8213986,144.9548658,10,3157.64,Winter,False,1.1889,"do not buy 3 months after purchase, last week 'no service' shown on alcon , i contacted pear store and they sent my alcon to repair, i got it back yesterday ; alcon worked for a few hours, then 'no service' shown again, can't make call/receive a call; total waste!!!",False
ORD305265,ID0370751503,2019-06-30,Bakers,"[('Toshika 750', 2), ('iStream', 2), ('Universe Note', 1)]",12390,64.46,-37.81294129999999,144.9858829,0,12454.46,Winter,False,0.8852,five stars excellent,True
ORD317608,ID0589449808,2019-03-05,Nickolson,"[('pearTV', 1), ('Alcon 10', 2), ('Toshika 750', 2)]",32850,80.89,-37.8093688,144.97277749999995,15,28003.39,autumn,True,1.0655,dr not bad,True
ORD072908,ID5231691589,2019-04-11,Thompson,"[('Olivia x460', 2), ('iAssist Line', 1), ('Toshika 750', 1), ('iStream', 1)]",9145,82.11,-37.8224885,144.9400214,15,7855.36,Autumn,False,1.2561,awesome quality product! really enjoying the great quality all around on this phone! arrived on time!,True
ORD357969,ID2877343035,2019-08-21,Bakers,"[('iAssist Line', 1), ('Toshika 750', 1), ('Olivia x460', 1)]",7770,64.99,-37.8196323,145.0024895,10,7057.99,Winter,True,1.2482,one star junk,False
ORD416124,ID0588198716,2019-07-22,Nickolson,"[('Thunder line', 2), ('Toshika 750', 1), ('Alcon 10', 1)]",17630,78.16,-37.8121951,144.9738711,15,15063.66,Winter,True,0.8074,really good phone best phone i ever had.,True
ORD196016,ID1037982504,2019-08-11,Thompson,"[('iAssist Line', 1), ('Toshika 750', 1), ('Thunder line', 2)]",10905,69.88,-37.8036589,144.962961,5,10429.63,Winter,False,1.7206,my 15 year old is curious about adult material. but with this tablet you can control so much of the content he sees. you can even control how much he learns before watching videos and games.,True
ORD245203,ID0777831779,2019-03-24,Thompson,"[('Universe Note', 2), ('Candle Inferno', 1), ('pearTV', 2), ('Lucent 330S', 1)]",11010,67.11,-37.804139,144.95882780000005,5,10526.61,Autumn,True,1.4043,crappy battery this is my 4th refurbished phone they all sucked the battery dont last 2 hours,False
ORD088267,ID2176972946,2019-03-16,Bakers,"[('pearTV', 2), ('Candle Inferno', 2), ('Toshika 750', 1), ('Lucent 330S', 1)]",19030,54.23,-37.8042493,145.01088869999995,5,18132.73,Autumn,False,1.5183,"sim card slot is damaged don't buy from the place name that starts with bay. i bought a universe s6 that had a defective sim card reader. but everything else was fine but you can't use the phone, you'd have no service so what is the point",False
ORD298638,ID1479897567,11-06-2019,Nickolson,"[('Thunder line', 2), ('Universe Note', 2), ('iAssist Line', 2), ('Toshika 750', 1)]",20030,66.58,-37.8203068,144.9577785,25,15089.08,Winter,False,1.0526,love love love this phone!!! there is absolutely nothing that i don't love about this phone. i recommend it to literally everyone and tell them what a phenomenal deal i got on it through digico ' s verizon upgrade offer!,True
ORD121502,ID1283643433,2019-01-02,Nickolson,"[('pearTV', 2), ('iStream', 2), ('iAssist Line', 2), ('Lucent 330S', 1)]",18600,86.21,-37.80030470000001,144.9657194,0,18686.21,Summer,False,2.0637,five stars very satisfied.,True
ORD143222,ID0579502235,2019-04-11,Thompson,"[('Candle Inferno', 1), ('iStream', 2)]",730,65.18,-37.8148461,144.9506248,0,8367.84,Autumn,False,0.3953,fast response which was amazing.  clear concise answers and sound quality is fantastic.  i am still getting used to alexia and have not usde thunder to its full extent.,True
ORD190116,ID0250933623,2019-02-25,Bakers,"[('pearTV', 2), ('Lucent 330S', 2), ('iStream', 1), ('iAssist Line', 2)]",19680,101.1,-37.82275170000001,145.0039638,25,14861.1,Summer,True,1.6142,wonderful wonderful phones and no complains.,True
ORD361530,ID0777789266,2019-16-10,Thompson,"[('Olivia x460', 1), ('Lucent 330S', 2), ('Toshika 750', 2)]",12325,76.93,-37.8068271,144.9548986,5,11785.68,Spring,False,0.9475,everything good. had it for 4 months. everything good.,True
ORD296626,ID0711331402,2019-09-18,Thompson,"[('iStream', 1), ('Toshika 750', 1), ('pearTV', 1), ('Thunder line', 1)]",12960,78.54,-37.807157200000006,144.9569305,5,12390.54,Spring,False,1.0626,five stars great job thank you,False
ORD039276,ID6167236682,02-06-2019,Nickolson,"[('Candle Inferno', 2), ('pearTV', 2), ('iStream', 2)]",13780,66.9,-37.8109284,144.9673354,15,11779.9,Winter,False,0.8754,good android phone for 2019 definitely worth the money,True
ORD099501,ID0052450513,2019-06-12,Thompson,"[('Olivia x460', 2), ('Thunder line', 1), ('Toshika 750', 2)]",13270,83.99,-37.7960038,144.93607649999996,10,12026.99,Winter,True,2.0924,my grandson loves it . he was very happy with it .,True
ORD067995,ID0287630676,2019-05-16,Thompson,"[('Universe Note', 2), ('iAssist Line', 1)]",9125,79.26,-37.8036348,144.94589950000002,0,9204.26,Autumn,True,1.0114,very nice phone very happy with the phone and the seller - abe's electronics center,True
ORD383894,ID1449431439,2019-09-22,Nickolson,"[('Toshika 750', 2), ('Alcon 10', 1)]",17590,72.26,-37.8150714,144.9747437,5,16782.76,Spring,True,0.602,great phone. works on t-mobile network. great phone. despite not being metal it feels very solid. i use this on ultra mobile (tmobile network) and it was trivial to get it working. i really like the lack of bloatware vs a olivia or network branded phone.,True
ORD473850,ID3215191976,2019-05-21,Thompson,"[('Thunder line', 1), ('iStream', 2), ('pearTV', 2)]",15100,51.91,-37.8076972,144.9554438,10,13641.91,Autumn,False,0.9216,"one star no new,retread",False
ORD127805,ID4260094037,2019-10-20,Nickolson,"[('Toshika 750', 2), ('Thunder line', 2), ('Candle Inferno', 2)]",13860,90.32,-37.822615,144.9581003,5,13257.32,Spring,True,1.1019,"beware. according to att this is a ""subsidized phone"" ... beware. according to att this is a ""subsidized phone"" that means that it can't be unlocked for 6 months so you can't use it with another carrier. att has no method for this phone to be used in europe. bottom line:: you can't use it in europe. ruined my european vacation. avoid att.",False
ORD043931,ID2632208067,2019-12-31,Bakers,"[('Thunder line', 1), ('pearTV', 2), ('Candle Inferno', 2), ('iStream', 1)]",33130,60.53,-37.8178994,144.989793,15,13499.03,Summer,False,1.0014,"only works on pre paid account this phone is not supported by a verizon wireless contract plan. you can only use this phone with a pre paid account. this was very disappointing for us. verizon will not activate to our plan because as of july 1st 2018, they are only activating smart phones on their regular consumer contract accounts",False
ORD223334,ID3215106462,2019-05-14,Thompson,"[('Toshika 750', 2), ('Alcon 10', 2), ('Lucent 330S', 2)]",29000,63.1,-37.8104633,144.950248,15,24713.1,Autumn,True,0.3724,"this phone is awful battery life sucks; screen broke too easily with an otterbox case, proximity sensor is messed up. avoid!",False
ORD375906,ID1899315620,2019-07-15,Thompson,"[('Olivia x460', 1), ('Toshika 750', 1)]",5545,79.02,-37.82339,144.94794,5,5346.77,Winter,True,1.1954,"s8 no manual, no adapter cord. bare phone and charger. but, it did arrive roughly when they said it would, and unlike fry's, they did not mark it backorderd after accepting my order.",False
ORD142404,ID0130043042,2019-01-01,Thompson,"[('Thunder line', 1), ('Toshika 750', 2), ('Universe Note', 2)]",17720,68.19,-37.8031018,144.9291818,0,17788.19,Summer,False,1.9,"dejo de funcionar la cámara después de un año de utilizar en marzo del año pasado lo compré y me dejo de funcionar la cámara a pesar que le escribir al programador de la cámara y hasta la misma morena google nunca me contestaron, decepcionado del móvil",False
ORD159266,ID2905756476,2019-02-16,Thompson,"[('Olivia x460', 2), ('Toshika 750', 2)]",11090,72.19,-37.8058859,144.950894,15,19973.87,Summer,False,0.8271,"the phone was in great condition. it also works without any issues the phone was in great condition. it also works without any issues, but it did not include a sim card.",True
ORD155458,ID1479897558,2019-08-13,Nickolson,"[('pearTV', 2), ('Olivia x460', 1)]",13845,65.61,-37.8202287,144.9575767,10,12526.11,Winter,False,1.0685,five stars very good and reliable service.,True
ORD102375,ID6202471347,2019-10-20,Nickolson,"[('iStream', 2), ('Alcon 10', 2), ('Thunder line', 2), ('Toshika 750', 1)]",26880,78.66,-37.8224318,144.9790292,5,25614.66,Spring,False,0.9365,"a new windows phone it's beautiful.only windows phone put people first.but the operating system is not perfact, for example this function attentive phone is not available,just like htc 8x, hope next update include this feature.",True
ORD009987,ID0767753106,2019-11-29,Nickolson,"[('Thunder line', 2), ('Olivia x460', 1), ('Candle Inferno', 2), ('iAssist Line', 2)]",10895,110.75,-37.8026123,144.9705446,25,8282.0,Spring,True,1.7813,he us happy and so am i just like my dad's old phone. he's happy and so am i.,True
ORD459280,ID6197211468,2019-08-03,bakers,"[('Alcon 10', 1), ('iAssist Line', 1)]",11175,68.54,-37.8129675,144.9336625,0,11243.54,Winter,False,1.1794,"five stars love it, super fast for the price.",True
ORD450806,ID0579408534,2019-08-26,Nickolson,"[('Lucent 330S', 2), ('iStream', 2), ('Candle Inferno', 2)]",3620,73.52,-37.82131079999999,144.9688757,10,3331.52,Winter,False,0.3081,three stars okay,True
ORD297998,ID4735909086,2019-05-10,Thompson,"[('Toshika 750', 2), ('Universe Note', 2), ('iAssist Line', 2)]",19990,65.39,-37.8043289,144.9501428,5,19055.89,Autumn,False,0.9674,"it's perfect for me i love this phone. it meets my requirements totally. i have no need for a smart phone or the cost of a data plan. for what i do, it is all i need.",True
ORD369966,ID0575428927,2019-06-26,Nickolson,"[('Alcon 10', 2), ('Olivia x460', 2), ('Lucent 330S', 1)]",23490,52.04,-37.8187161,144.98400859999995,0,23542.04,Winter,False,1.2714,one star the device was stolen when it was delivered,False
ORD022949,ID0107156521,2019-09-02,Nickolson,"[('Olivia x460', 2), ('Lucent 330S', 1)]",3680,78.6,-37.82398679999999,144.9776707,10,3390.6,Spring,False,0.9327,very good very good,True
ORD408243,ID6167489374,2019-01-14,Thompson,"[('Toshika 750', 2), ('iAssist Line', 2), ('Universe Note', 2), ('Candle Inferno', 1)]",18420,75.2,-37.8121811,144.9578194,0,18495.2,Summer,False,0.947,excellent condition verizon network and refurbished...looked new,True
ORD293366,ID1042174041,2019-01-06,Nickolson,"[('Toshika 750', 2), ('Thunder line', 2), ('iAssist Line', 2)]",17450,80.27,-37.8047703,144.9646829,10,15785.27,Summer,False,1.5974,this is a great digico inferno hd8. i love the size. so much better than my first candle.,True
ORD216922,ID5322615259,2019-09-02,Thompson,"[('iStream', 1), ('pearTV', 2), ('Alcon 10', 1), ('Toshika 750', 1)]",19270,98.32,-37.8043951,144.9203651,15,16477.82,Spring,True,2.5228,most fragile phone ever made do your research and you will see this is the most breakable phone ever. mine cracked twice .... without dropping ... even though i have the olivia case designed to protect it. great phone but that $200 monthly deductible will drive you broke (no pun intended)!,False
ORD111103,ID0767723736,2019-05-26,Nickolson,"[('Candle Inferno', 2), ('iStream', 1), ('Olivia x460', 2), ('Thunder line', 2)]",7820,81.35,-37.80506870000001,144.97232309999995,10,7119.35,Autumn,True,1.5253,"four stars love this phone. it's fast, easy to use and the screen is a good size.",True
ORD214665,ID6167231029,2019-05-11,Thompson,"[('Thunder line', 2), ('Lucent 330S', 1), ('Universe Note', 1), ('Alcon 10', 2)]",26140,66.43,-37.8138047,144.9574646,5,24899.43,Autumn,False,0.9229,perfect!!! phone was in perfect condition!!!,True
ORD180459,ID4520380453,2019-07-28,Nickolson,"[('Alcon 10', 2), ('iAssist Line', 1)]",20125,60.19,-37.8214388,144.9613955,5,19178.94,Winter,True,0.7839,"don't buy for use in uganda i bought this phone for use with a sim in uganda, but it would not connect with the local network. i do not recommend buying it for that location.",False
ORD024772,ID6167265867,2019-12-18,Nickolson,"[('Thunder line', 1), ('iAssist Line', 2)]",6630,71.17,144.9667107,-37.81555820000001,25,5043.67,Summer,False,0.4203,great phone m/a,True
ORD147651,ID0030287517,2019-08-31,Bakers,"[('Toshika 750', 1), ('iAssist Line', 2)]",8770,64.69,-37.7996411,144.9910159,10,7957.69,Winter,True,1.2109,total disappointment!! buyer beware.!!! this phone is not unlocked.. it is a metro pcs phone that in order for them to unlock u have to first be on there network for 180 days.. then they say it will be unlocked..!! sending it back immediately what a disappointment!!!,False
ORD466854,ID6197211193,2019-10-05,Thompson,"[('Olivia x460', 1), ('Alcon 10', 1)]",10175,83.78,-37.8149953,144.9276012,25,7715.03,Spring,False,0.9787,"great i love it, however the speakers sound very odd, however i always use bluetooth, so no big deal.",True
ORD492165,ID1492175302,2019-05-05,Thompson,"[('pearTV', 2), ('iAssist Line', 1), ('Universe Note', 2), ('Olivia x460', 2)]",24195,84.84,-37.8025573,144.9636735,15,20650.59,Autumn,True,1.8441,five stars everything works great!,True
ORD456335,ID3098154911,2019-08-20,Thompson,"[('Candle Inferno', 2), ('iAssist Line', 1), ('Toshika 750', 1)]",7405,67.97,-37.8231569,144.9382363,25,5621.72,Winter,False,1.4019,four stars really good product,True
ORD237973,ID1490182710,2019-04-22,Nickolson,"[('iStream', 2), ('Thunder line', 2), ('Olivia x460', 1), ('Candle Inferno', 2)]",6745,65.43,-37.821922,144.97379850000004,25,5124.18,Autumn,False,0.526,love my new phone i had a four year old olivia s4 with a dead battery. the g6 is light years better than my old phone and a lot less expensive than a new olivia s9. i feel like i'm carrying around a computer. now i wish i had ditched the old olivia sooner.,True
ORD016179,ID0571731102,2019-08-30,thompson,"[('Olivia x460', 1), ('iStream', 1), ('iAssist Line', 2), ('Lucent 330S', 1)]",7055,66.21,-37.8241345,144.943471,0,7121.21,Winter,False,1.3145,"great phone!!! great phone, beautiful shape, s-pen works perfectly and the new click feature really makes it feel higher-end. the battery is the only downfall...i barely get 3 hours of use out of it when i am playing games or on the internet. otherwise, definitely recommended!",True
ORD218262,ID5109337888,2019-01-22,Nickolson,"[('iStream', 2), ('Lucent 330S', 1)]",1530,98.36,-37.823123,144.9830236,25,1245.86,Summer,True,0.9073,edge i loved the phone but my camera stopped working after 3 days do i returned it. i never use all the gadgets on most points but i was excited about the edge on this one,True
ORD439314,ID3146813285,2019-10-11,Nickolson,"[('Universe Note', 1), ('iAssist Line', 1)]",5675,76.49,144.9769735,-37.8120148,10,5183.99,Spring,False,0.9811,"barrage this phone is no longer made for verizon so i had to search for it because this was the one my husband wanted...he is extremely happy with and would not part with it.its dependable,clear and sturdy for a working person.",True
ORD178383,ID0252588540,2019-06-14,Nickolson,"[('Toshika 750', 1), ('pearTV', 1)]",10630,76.04,-37.82097260000001,144.9762569,25,8048.54,Winter,False,0.6464,"better option than going to the store good phone , a little light but works fine. only bad thing is that doesn't have nfc , the rest works fine.",True
ORD286453,ID5402876214,2019-03-14,Nickolson,"[('Olivia x460', 1), ('Alcon 10', 2), ('Thunder line', 2)]",5975,65.29,-37.8211636,144.9781181,10,21201.79,Autumn,False,0.8058,good quality for the price best phone for pictures and storage for the price. fabulous battery life.,True
ORD168358,ID4520380524,2019-11-17,Thompson,"[('pearTV', 2), ('Candle Inferno', 2), ('Toshika 750', 1), ('iStream', 1)]",17950,77.31,144.95728530000005,-37.8136573,25,13539.81,Spring,False,0.9051,great buy! i love my alcon 7 plus! it seems brand new!,True
ORD101388,ID0145245938,2019-01-01,Nickolson,"[('Universe Note', 2), ('Thunder line', 2), ('iStream', 2), ('Alcon 10', 2)]",29460,73.49,-37.8167395,144.9602506,5,28060.49,Summer,False,0.8435,ok phone i loved the style of this phone but the volume was not loud enough even when i turned it alll the way up i also could not hear the text messages i got,True
ORD016716,ID3832253555,2019-12-11,Bakers,"[('Olivia x460', 2), ('Universe Note', 2), ('Lucent 330S', 2)]",11810,102.74,-37.7992427,144.983011,0,11912.74,Summer,True,1.6088,"excellent phone at a great price, quick delivery works like a champ. no issues at all using it on at&t network pre-paid plan. fortunately not one of the 7's which spontaneously combusts.",True
ORD455605,ID2776394281,2019-10-01,thompson,"[('pearTV', 1), ('iAssist Line', 1), ('Alcon 10', 1)]",17485,61.08,-37.8117797,144.96347609999995,5,16671.83,Spring,False,0.9279,bad battery phone came with a battery that had only 52% max capacity. would hold a full charge for about 2 hours before it would shutdown. i would think if you “refurbish” a phone you would replace the battery in it if it was in that poor of a condition.,False
ORD204408,ID6167489440,2019-23-11,Nickolson,"[('pearTV', 1), ('Universe Note', 1), ('Olivia x460', 2), ('iStream', 1)]",12360,87.92,-37.812937700000006,144.9595872,0,12447.92,Spring,True,1.079,junk battery bought this 3 months ago. can't leave it unplugged for more than 15 minutes without the battery dying. waste of over 200$,False
ORD007054,ID6167441075,2019-03-03,Nickolson,"[('Lucent 330S', 2), ('iStream', 2), ('Thunder line', 1)]",4940,77.37,-37.8159152,144.964706,5,4770.37,Autumn,True,0.5201,very easy to use lots of features that we have never used before and easy to learn and large screen and great color to see,True
ORD119610,ID0026034673,2019-08-29,Nickolson,"[('Toshika 750', 2), ('iStream', 2)]",8940,76.95,-37.8118278,144.9675751,15,7675.95,Winter,True,0.7731,good condition worked well for several weeks but the touch screen freezes up occasionally.,False
ORD276810,ID1621189042,2019-01-26,Thompson,"[('Alcon 10', 2), ('Thunder line', 1), ('pearTV', 1), ('Universe Note', 1)]",29840,87.83,-37.8151511,144.94485559999995,15,25451.83,Summer,True,0.3376,definitely recommend! great quality for the price ! very happy with purchase,False
ORD284990,ID0746912606,2019-02-13,Nickolson,"[('iAssist Line', 1), ('Alcon 10', 2)]",20125,100.27,-37.8246322,144.98466480000005,0,20225.27,Summer,True,1.4892,"great phone for less very good phone for the size and price, very satisfied with the seller.",True
ORD013755,ID0259159143,2019-07-18,Nickolson,"[('Lucent 330S', 2), ('Candle Inferno', 1), ('Universe Note', 2), ('iStream', 1)]",9940,67.16,-37.8243704,144.98757980000005,0,10007.16,Winter,True,1.7107,gps is awful gps system is completely messed up. everything else works great but i'm really unhappy with the google maps app with the phone.,False
ORD406637,ID0131102989,2019-01-18,Thompson,"[('Olivia x460', 1), ('Lucent 330S', 2), ('Toshika 750', 2), ('Alcon 10', 1)]",21275,95.75,-37.8145184,144.958323,10,19243.25,Summer,True,1.0108,awesome! exactly what i ordered and works perfectly.,True
ORD270654,ID4740821310,2019-03-19,Thompson,"[('Alcon 10', 2), ('iStream', 2)]",18200,79.46,-37.8034132,144.9499017,10,16459.46,Autumn,True,1.0605,"meh so far so good, but slow on the cricket network",False
ORD231819,ID1879206776,2019-16-10,Thompson,"[('Candle Inferno', 2), ('iStream', 1)]",1010,82.7,-37.8019904,144.96013290000005,25,840.2,Spring,False,1.6536,best budget phone you can get one of the best budget phones you can get just fantastic,True
ORD485052,ID2653377679,2019-03-12,Thompson,"[('iAssist Line', 2), ('Olivia x460', 1), ('pearTV', 1)]",16175,83.69,-37.8015275,144.9581491,25,12214.94,Autumn,True,1.5777,"i have had several budget tablet, but this blows them all away. you have to be willing to be invested in the digico ecosystem, but it is well worth it.",True
ORD357827,ID4326586225,2019-08-04,Nickolson,"[('pearTV', 1), ('iAssist Line', 2), ('Alcon 10', 2), ('Universe Note', 2)]",35560,74.9,-37.8171949,144.9645119,10,32078.9,Winter,True,0.4697,great value great product,True
ORD425492,ID0370751687,2019-05-30,Bakers,"[('pearTV', 2), ('Universe Note', 2)]",19520,51.57,-37.8119516,144.9860757,0,19571.57,Autumn,False,0.8342,returned returned,False
ORD461436,ID0579498250,2019-07-30,Thompson,"[('Thunder line', 1), ('iAssist Line', 2)]",7055,60.66,-37.8142019,144.94947140000005,25,5033.16,Winter,False,0.2713,"and operates just like a new one at first i was hesitant to purchase a refurbished cell phone, but it looks, feels, and operates just like a new one. very satisfied with purchase.",True
ORD230713,ID0120947918,2019-12-27,Nickolson,"[('pearTV', 1), ('Olivia x460', 2)]",8760,73.48,-37.8159158,144.9688873,25,6643.48,Summer,True,0.3039,not the worst... used for three weeks and returned. buy an alcon.,False
ORD474431,ID3215192025,2019-09-18,Thompson,"[('Lucent 330S', 1), ('pearTV', 2), ('Universe Note', 2), ('iAssist Line', 2)]",25200,98.04,-37.8090248,144.9469103,15,21518.04,Spring,False,0.4064,works with verizon good phone works with verizon,True
ORD015739,ID6167191730,2019-07-08,Nickolson,"[('iAssist Line', 1), ('Lucent 330S', 1), ('Candle Inferno', 2)]",4315,63.44,-37.8158211,144.9658061,5,4162.69,Winter,False,0.4514,perfect phone. i've had this phone for about 4 months on verizon. it was already the perfect phone for me. i updated 2 days ago to android marshmallow and the experience is even better.,True
ORD292920,ID2776664754,2019-01-04,Nickolson,"[('Alcon 10', 1), ('iAssist Line', 2), ('Candle Inferno', 1)]",13830,62.42,-37.824005,144.95599119999997,15,11817.92,Summer,False,1.3358,"bad battery needs replacement battery came at below 80% .. would go from 100% to 0% in less than 1hr, tried to contact seller and have been ignored. horrible customer service and miss advertised product",False
ORD423641,ID6167236665,2019-10-19,Nickolson,"[('Candle Inferno', 1), ('Thunder line', 1)]",2610,101.56,-37.8106153,144.96755359999997,0,2711.56,Spring,False,0.9055,great phone! the phone arrived quickly. it looks brand new. totally flawless you can't find anything wrong with it. i could not be happier. highly recommend!!,True
ORD427987,ID0589425592,2019-12-24,Nickolson,"[('Lucent 330S', 2), ('iStream', 1)]",2610,96.82,-37.8094181,144.9726915,15,2315.32,Summer,True,1.0582,almost good! loved this phone and wished i could have kept it. but the battery life just didn't cut it for me. i had to send it back 😭,True
ORD304952,ID0762005130,2019-11-28,Bakers,"[('Alcon 10', 1), ('iStream', 2)]",9250,107.3,-37.8035879,144.97675759999996,10,8432.3,Spring,True,1.7745,five stars nice but doesnt have marshmallow update yet ..waiting for it,True
ORD352123,ID0576864253,2019-04-23,Nickolson,"[('Lucent 330S', 2), ('iAssist Line', 2), ('Candle Inferno', 2)]",7770,66.54,-37.8242258,144.9866885,15,6671.04,Autumn,True,1.6321,"waste of money did work, but not correctly. shut off at will waste of money.",False
ORD383353,ID0331421479,2019-02-13,Bakers,"[('Universe Note', 1), ('Lucent 330S', 1), ('Thunder line', 2)]",9040,85.89,-37.822931200000006,144.99035600000005,5,8673.89,Summer,False,1.5024,bad refurbished phone this particular phone i ordered was a refurbished phone and did not work at all. i sent it back.,False
ORD016418,ID0498680515,2019-08-27,Bakers,"[('Thunder line', 1), ('iAssist Line', 2), ('Olivia x460', 1), ('Toshika 750', 1)]",12175,64.29,-37.80255820000001,144.9930549,5,11630.54,Winter,False,0.4671,four stars works really well and was shipped on time.,True
ORD443721,ID4297530207,2019-01-28,Nickolson,"[('iAssist Line', 2), ('Universe Note', 1), ('Lucent 330S', 1), ('iStream', 1)]",9280,79.57,-37.8056943,144.9772061,0,9359.57,Summer,False,1.586,five stars excellent purchase,True
ORD094765,ID3106293381,2019-08-16,Thompson,"[('Thunder line', 2), ('Toshika 750', 1)]",8680,68.56,-37.8066242,144.9323335,15,7446.56,Winter,False,1.4604,"have only had it set up for a few days. still adding smart home devices to it. the speaker is great for playing music. i like the size, we have it stationed on the kitchen counter and it’s not intrusive to look at.",True
ORD112175,ID3218293561,2019-03-26,Thompson,"[('iStream', 2), ('Thunder line', 2), ('Olivia x460', 2), ('Candle Inferno', 1)]",7540,65.18,-37.8050564,144.956005,25,5720.18,Autumn,True,1.1561,not worth it its a ok phone but not worth the price the phone i got looked new no scratches but alot features were blocked like video calling when your on the phone and while u on the phone you can not internet search and also the battery is faulty it does not hold a charge when i charge it within 4hrs max its dead im very disappointed,True
ORD118057,ID0575561666,2019-12-06,Nickolson,"[('pearTV', 2), ('Thunder line', 1), ('Candle Inferno', 2)]",15660,82.38,-37.82395800000001,144.9825495,10,14176.38,Summer,False,1.2895,can answer questions about anything found on the internet. also plays music you request. disappointed that it can't dial numbers via my cell phone though. a little expensive for what it does i think.,False
ORD303935,ID0287630684,2019-12-01,Thompson,"[('Toshika 750', 2), ('Universe Note', 1)]",12090,75.03,-37.803731,144.946674,25,9142.53,Summer,False,0.996,five stars i am really happy with this phone. it was refurbished and looks new. works great! love it!,False
ORD371313,ID6206959532,2019-09-16,Thompson,"[('Toshika 750', 1), ('Olivia x460', 2)]",6770,84.07,144.9340469,-37.8223792,25,5161.57,Spring,False,1.5744,"phone good with some major annoyances the phone works better than olivia in pretty much every category, except google voice and android auto don't work. this is enough of a deal breaker for most and i am considering returning the device for these reasons.",True
ORD069443,ID0241807400,2019-02-06,Bakers,"[('Toshika 750', 2), ('Lucent 330S', 2), ('Thunder line', 2), ('Alcon 10', 2)]",33360,90.51,-37.8122321,144.9898339,10,30114.51,summer,True,0.536,good deal a great phone for the price,True
ORD028111,ID0030287465,2019-12-27,Nickolson,"[('Candle Inferno', 1), ('Thunder line', 1)]",2610,83.0,-37.8081138,144.97686069999997,10,2432.0,Summer,True,1.3321,quit working after 6 months had this phone for 6 months. took it out of my pocket and the screen is black. i did not drop or damage it in any way. it still rings but has no display. waste of $600.,False
ORD245742,ID0256189632,2019-10-16,Thompson,"[('Olivia x460', 1), ('Toshika 750', 1), ('Lucent 330S', 1)]",6775,166.92,-37.7396359,144.8463361,0,14176.38,Spring,False,12.0273,five stars great phone!,True
ORD226586,ID1492169362,2019-01-29,Thompson,"[('Olivia x460', 2), ('Universe Note', 2)]",9350,85.72,-37.7992761,144.9641615,25,7098.22,Summer,False,2.1175,amazing cellphone for the price very good for the price,False
ORD446492,ID0634784034,2019-05-20,Thompson,"[('Olivia x460', 1), ('Thunder line', 2)]",5585,80.72,-37.8133342,144.9368117,0,5665.72,Autumn,True,0.905,"delivery was fast & i really like this phone delivery was fast & i really like this phone. was easy to have activated, but you will need a sim card. update sept. 2017: five months later & i find it needs a new battery as well as it gets terrible reception even within a mile of a cell tower.",False
ORD241753,ID0775945874,2019-10-31,Thompson,"[('Lucent 330S', 1), ('Universe Note', 1), ('pearTV', 1)]",10990,106.11,-37.806209,144.9594792,0,11096.11,Spring,True,1.3073,really like it,True
ORD351566,ID5002595130,2019-11-01,Thompson,"[('iStream', 2), ('Thunder line', 2), ('pearTV', 1), ('Toshika 750', 1)]",11205,100.81,-37.81192,144.9535766,10,10185.31,Spring,True,0.5784,five stars good,True
ORD195697,ID3218226996,2019-11-18,Thompson,"[('iAssist Line', 1), ('pearTV', 1), ('Toshika 750', 2)]",17175,73.77,-37.807841,144.9456925,5,16390.02,Spring,True,0.5514,lots of good features for the digico member. tablet is nice and fast.,True
ORD287545,ID5727168144,2019-11-13,Nickolson,"[('Candle Inferno', 2), ('Universe Note', 2), ('Lucent 330S', 1)]",8990,82.09,-37.8245126,144.9821901,5,8622.59,autumn,False,1.2919,nice product this was a gift and the recipient loves it.,True
ORD432698,ID0591274706,2019-09-04,Nickolson,"[('Toshika 750', 1), ('Universe Note', 1)]",7770,105.64,-37.8239191,144.9562884,10,7098.64,Spring,True,1.3082,love my phone! love my new phone,True
ORD064449,ID4884445043,2019-02-05,Thompson,"[('Thunder line', 1), ('iAssist Line', 1), ('Lucent 330S', 1)]",19440,82.22,-37.8005849,144.9344349,10,5153.72,Summer,False,1.7451,grrab this phone over the j7 you wont be dissapointed real nice phone . best ban for your buck much better than the new j7 and a even better price.,True
ORD049901,ID0591432788,2019-12-20,Nickolson,"[('Thunder line', 1), ('Alcon 10', 2), ('Olivia x460', 2)]",22530,90.21,-37.8195758,144.9632486,5,21493.71,Summer,False,0.5649,couldn't recommend this more for kids. price and features are awesome along with parental controls.,True
ORD285653,ID4754200400,2019-09-29,Thompson,"[('pearTV', 2), ('Alcon 10', 2), ('Thunder line', 2)]",34880,84.48,144.9285102,-37.8163947,0,34964.48,Spring,False,1.6838,"amazing this is the phone to buy. its just amazing. totally worth the money. screen, battery, performance. price is all perfect. could not have bought a better phone. thank you olivia for making it. thank you digico for supplying it.",True
ORD412214,ID4315827375,2019-09-28,Bakers,"[('iAssist Line', 1), ('pearTV', 1), ('Candle Inferno', 2), ('Alcon 10', 2)]",27295,66.49,-37.82001210000001,144.99893669999997,15,23267.24,Spring,False,1.1616,"broken on arrival the phone arrived and the audio jack, phone speaker, and phone mic where all not working.",False
ORD028760,ID0593055580,2019-06-12,Nickolson,"[('iAssist Line', 2), ('pearTV', 2), ('Lucent 330S', 1), ('Alcon 10', 1)]",27250,50.11,-37.8116412,144.9639439,5,25937.61,Winter,False,0.9178,worst signal worst signal. doesn't matter if it's on wifi or data,False
ORD126673,ID0760180220,2019-05-14,Thompson,"[('pearTV', 1), ('Alcon 10', 1)]",15260,66.49,-37.8222526,144.94994230000003,0,15326.49,Autumn,True,1.0959,broken i order one but came broken,False
ORD232071,ID3146808076,2019-06-25,Bakers,"[('Thunder line', 1), ('Universe Note', 2)]",9080,65.48,-37.8125341,144.9878982,5,8691.48,Winter,False,0.7041,"would recommend. very good, and takes great pictures.",True
ORD308449,ID0638044336,2019-03-11,Thompson,"[('pearTV', 1), ('Thunder line', 2), ('iAssist Line', 2)]",15120,53.08,-37.8134906,144.9310399,5,14417.08,Summer,False,1.4126,defiantly a renewed alcon. screen will not turn on. haven't been able to use the phone at all. one of the screws on the bottom of the phone appears to have a different thread pattern as well.,False
ORD001829,ID2368044502,2019-11-26,Nickolson,"[('Olivia x460', 2), ('Lucent 330S', 2), ('iAssist Line', 1), ('iStream', 2)]",7435,67.42,-37.8073472,144.9781648,25,5643.67,Spring,False,1.5298,took product back and was told that in order to get assistance the geek squad would have to help me at my home and be charged for the service. i decided we didn't need the product that badly so took it back for a refund.,False
ORD301962,ID0579999136,2019-11-21,Thompson,"[('iStream', 1), ('Olivia x460', 1), ('Lucent 330S', 1), ('Universe Note', 1)]",6055,107.73,144.9333802,-37.8058221,0,6162.73,Spring,True,1.4251,looks cool haven't gotten it yet getting it i. the afternoon yay it seems like. a good phone,True
ORD168932,ID0021578114,2019-02-26,Thompson,"[('Toshika 750', 1), ('Thunder line', 2), ('Lucent 330S', 2), ('iStream', 1)]",11290,71.49,-37.8144339,144.9491375,25,8538.99,Summer,True,0.2674,one star it is locked phone and not working on other carriers.,False
ORD008927,ID2236727832,2019-12-19,Bakers,"[('Lucent 330S', 1), ('Candle Inferno', 1)]",1660,92.27,-37.81092570000001,145.00415800000005,25,1337.27,Summer,True,0.7918,five stars awesome,True
ORD420276,ID0054552192,2019-07-21,Nickolson,"[('Alcon 10', 1), ('Candle Inferno', 2), ('Toshika 750', 1), ('pearTV', 2)]",26750,66.31,-37.8206294,144.9846349,15,22803.81,Winter,False,1.3456,"excellent i bought this for my 10 year old son's birthday. it's his first phone, but he is pretty tech savvy. he loves the phone. excellent phone for the money. no complaints on the typical weak points of low-mid range phones like battery, camera or anything else.",True
ORD159989,ID4716795435,2019-09-25,Thompson,"[('Candle Inferno', 1), ('Toshika 750', 2), ('pearTV', 1), ('iAssist Line', 1)]",17605,85.29,-37.8190201,144.95299350000005,25,5366.45,Spring,True,0.8778,two stars had to send back couldn't hear the other party talking was broken,False
ORD436717,ID2187980370,2019-10-21,Thompson,"[('pearTV', 2), ('Alcon 10', 2), ('Lucent 330S', 1)]",31750,98.08,-37.8135186,144.9656215,5,30260.58,Spring,True,0.6624,we have had no issues with this tablet. love it!ty,True
ORD040736,ID1124133097,2019-04-07,Bakers,"[('Universe Note', 2), ('iAssist Line', 1)]",9125,68.58,-37.8130627,145.0117925,25,6912.33,Autumn,True,1.7081,one star phone sucks!!! don't ever buy that piece of junk!!!,False
ORD221258,ID1668523149,2019-01-10,Thompson,"[('Candle Inferno', 2), ('Universe Note', 1), ('iStream', 2)]",4610,67.03,-37.81317420000001,144.9449747,0,4677.03,Summer,False,0.1924,performance is a lot better than i was expecting for a $99 phone performance is a lot better than i was expecting for a $99 phone. quality is an absolute 10*. i'm glad xp is back. 😊🤗,True
ORD071540,ID1462398968,2019-06-12,Bakers,"[('Olivia x460', 2), ('iAssist Line', 2)]",6900,56.53,-37.8201747,145.01397980000004,25,5231.53,Winter,False,2.0005,not worth it! the device doesn’t even come in an pear box nor comes with pear certified charging cable or wall socket. the packaging was very poor. i did not expect digico renewed standards to be so low.,False
ORD340847,ID3281123501,2019-11-21,Thompson,"[('Lucent 330S', 2), ('iStream', 1)]",2610,104.04,-37.80473189999999,144.9576634,15,27434.31,Spring,True,1.2844,"love it fast , pictures look fab. love the battery life",True
ORD251891,ID0298045619,2019-02-09,Nickolson,"[('Olivia x460', 2), ('iStream', 1), ('Candle Inferno', 2)]",3460,90.85,-37.8233855,144.96604399999995,10,9430.75,Summer,True,0.616,"four stars nice phone, above expectations",True
ORD121996,ID2949357162,2019-10-21,Thompson,"[('Universe Note', 1), ('pearTV', 2)]",16070,71.63,-37.813222,144.951286,5,15338.13,Summer,False,0.3759,totally new phone! recommended,True
ORD491994,ID6122497851,2019-10-16,Bakers,"[('Lucent 330S', 2), ('pearTV', 2), ('Toshika 750', 2), ('iStream', 2)]",24020,63.43,-37.8024834,145.0032421,15,20480.43,Spring,False,1.0935,"don't by from gold mobility. not a factory unlock device, locked with verizon. it had noticeable glue coming out of the screen edge. not as described.",False
ORD253135,ID4754200379,2019-04-04,Thompson,"[('iAssist Line', 2), ('Candle Inferno', 1)]",4880,83.23,-37.8152344,144.9275802,25,3743.23,Autumn,True,1.7374,great product. would recommend outstanding!!! top notch service and shipped on time. great product. would recommend.,True
ORD032659,ID1847879568,2019-04-28,Bakers,"[('iAssist Line', 2), ('Candle Inferno', 1), ('Lucent 330S', 1), ('Thunder line', 1)]",8290,68.37,-37.8129073,145.0130137,25,6285.87,Autumn,True,1.597,it freezes and erases my contacts i check on line ... it freezes and erases my contacts i check on line and found out these models do this all the time,False
ORD122177,ID0277125478,2019-10-01,Thompson,"[('Lucent 330S', 2), ('Thunder line', 1), ('Toshika 750', 2)]",13280,74.93,144.9410259,-37.81357,10,12026.93,Spring,False,0.5407,four stars i really like this phone.. is a good product and is not expensive... it does not have headphones.,True
ORD477257,ID0591259275,2019-11-23,Thompson,"[('Universe Note', 1), ('Lucent 330S', 2)]",5910,108.04,-37.823947,144.9543146,25,14089.82,Spring,True,1.4074,very good. personal use,True
ORD073682,ID0589419787,2019-09-21,Nickolson,"[('Olivia x460', 1), ('Candle Inferno', 2), ('Toshika 750', 2), ('Universe Note', 1)]",14175,77.98,144.97261930000005,-37.8095129,0,14252.98,Spring,False,1.0464,"very happy with all, after 5 month all perfect, easy and perfect size. only recomendation, buy a good screen protector!",True
ORD194455,ID1889102279,2019-04-01,Thompson,"[('Universe Note', 1), ('iStream', 1), ('Thunder line', 2), ('iAssist Line', 2)]",12410,86.38,-37.7931339,144.9652359,15,10634.88,Autumn,True,2.6989,we bought this earlier on line from another vendor and it was never delivered. best buy was great.,True
ORD478410,ID5290706355,2019-09-24,Nickolson,"[('Thunder line', 1), ('Alcon 10', 2), ('Candle Inferno', 2)]",20940,80.87,-37.80813320000001,144.97617409999995,5,19973.87,Spring,False,1.3021,great phone love this phone. so fast takes great pictures. does everything i would need.,True
ORD262148,ID0846571197,2019-09-22,Nickolson,"[('Universe Note', 2), ('iAssist Line', 2), ('Candle Inferno', 1)]",11780,56.13,-37.8183749,144.9687572,15,10069.13,Spring,False,1.5785,"not functional verizon was not able to connect to the phone. they said ""it had an internal issue. something that the alcons are known for having"". im waiting for my refund. its been several days now.",False
ORD016330,ID0591354256,2019-05-14,Nickolson,"[('Alcon 10', 1), ('Lucent 330S', 1)]",10180,66.27,-37.8229191,144.9553496,15,8719.27,Autumn,True,1.3383,"the phone is cracking like crazy, even with expensive rugged case on it the phone is cracking like crazy, even with expensive rugged case on it. is this normal? will not buy glass phones in the future.",True
ORD352684,ID0667680173,2019-11-08,Nickolson,"[('Alcon 10', 1), ('Universe Note', 2), ('Candle Inferno', 2)]",16710,73.52,-37.8137954,144.9718227,0,16783.52,Spring,False,0.5704,five stars awesome phone,True
ORD192649,ID1881118491,2019-10-20,Thompson,"[('Alcon 10', 1), ('Candle Inferno', 1)]",9380,85.45,-37.800071,144.9621733,25,7120.45,Spring,False,1.8144,"great , love it.",True
ORD426252,ID6167236639,2019-02-14,Thompson,"[('iAssist Line', 2), ('Candle Inferno', 2)]",5310,93.42,-37.8143014,144.9548242,25,4075.92,Summer,False,0.7057,a modern phone for the ones who want a modern phone. lots of cool options when you connect google my only issue after opening the phone a week...i scuffed my finger on the ground and the fingerprint option would not recognize any part of my print. maybe that's good.?,True
ORD208932,ID1459890789,2019-06-28,Bakers,"[('Thunder line', 2), ('Toshika 750', 1), ('Candle Inferno', 2), ('Lucent 330S', 1)]",10770,71.7,-37.8200292,145.0127233,10,9764.7,Winter,False,1.9009,"awesome product loved it until i took a swim with it, bought a note 8 to replace so all's well that ends well",True
ORD194487,ID2096325796,2019-10-30,Thompson,"[('pearTV', 1), ('Lucent 330S', 1)]",7540,67.76,-37.8000554,144.9546115,5,7230.76,Spring,False,1.2158,cheap but biggest problem is i can't get it to download apps. the internet connection is very weak.,False
ORD368874,ID0579478404,2019-05-04,Thompson,"[('Universe Note', 1), ('iStream', 1)]",3600,81.4,-37.8208638,144.954207,25,2781.4,Autumn,True,1.1069,"nice s7 edge just as i expected, looks like a new one, easy to set up.",True
ORD244269,ID0777789266,2019-08-22,Thompson,"[('Thunder line', 1), ('iStream', 1)]",2330,77.1,-37.8068271,144.9548986,5,2290.6,Winter,True,0.9475,"my 5 yr old loves it, however we do experience some sound issues from time to time.",True
ORD086528,ID1463620801,10-07-2019,Bakers,"[('Thunder line', 2), ('pearTV', 2), ('Lucent 330S', 2)]",19440,66.86,-37.8165173,145.00563359999995,0,19506.86,Winter,False,1.1678,no wifi calling loved the phone but had to return it because it wouldn't do wifi calling via the metro by tmobile network.,True
ORD091058,ID0370242314,2019-12-27,Nickolson,"[('Olivia x460', 2), ('iAssist Line', 1)]",4675,85.3,144.9718105,-37.7997691,10,4292.8,Summer,False,2.105,very pleased with product i received my phone promptly and it is in like new condition. it meets and exceeds my expectations. thank you:),True
ORD254957,ID6143862337,2019-09-14,Bakers,"[('iStream', 1), ('Universe Note', 2)]",7050,78.95,-37.8028849,145.0029832,25,5366.45,Spring,False,1.0447,i love the battery charging speed and long time use. this device is an excellent one.,True
ORD087878,ID0054392209,2019-07-26,Thompson,"[('Lucent 330S', 2), ('Olivia x460', 1), ('Thunder line', 1), ('iStream', 1)]",6015,69.13,-37.7992857,144.9502069,5,5783.38,Winter,False,1.5156,great phone it's a great phone. battery life could be a bit better.,True
ORD088099,ID5002595081,2019-01-20,Thompson,"[('Lucent 330S', 1), ('pearTV', 2), ('Toshika 750', 2), ('Thunder line', 2)]",26850,92.15,-37.8123395,144.9536984,0,26942.15,spring,True,0.5842,great value for the money! easy set up. great value for the money! i am super happy with my purchase. for reference i had a universe j3 and use an alcon 8 for work.,True
ORD040660,ID1462398739,2019-05-07,bakers,"[('Toshika 750', 1), ('pearTV', 2)]",16940,68.21,-37.81984370000001,145.0116726,0,17008.21,Autumn,True,1.8144,"bad connection, dropping calls i bought this phone for my husband and after a few months started having issues , static, bad connection, dropping calls, it's not worth the money. i regretted buying it it, i do not recommend it.",False
ORD170119,ID0266737792,2019-12-17,bakers,"[('Thunder line', 1), ('Alcon 10', 1), ('pearTV', 2), ('iAssist Line', 2)]",28200,96.36,-37.8235366,144.9808725,25,21246.36,Summer,True,1.1374,excellent choice! excellent device with great lte connection. best choice!,True
ORD129928,ID0777794267,2019-03-28,Thompson,"[('Thunder line', 1), ('Olivia x460', 1), ('iAssist Line', 2), ('Toshika 750', 2)]",16495,79.01,-37.80757620000001,144.95491330000004,0,16574.01,autumn,True,0.8932,😍😍😍 so far i am loving this phone..,True
ORD429327,ID0575554323,2019-08-25,Nickolson,"[('Universe Note', 1), ('Toshika 750', 2)]",12090,79.62,-37.8260999,144.9848703,5,11565.12,Winter,True,1.5851,reliable. great phone! best i've had in over ten years. mom.,True
ORD126538,ID0702451774,2019-06-29,Thompson,"[('Thunder line', 1), ('Toshika 750', 1), ('Lucent 330S', 1), ('Universe Note', 1)]",11180,64.53,-37.8045489,144.9432618,15,9567.53,Winter,False,1.1678,great arrived on time and is working just fine,True
ORD240470,ID1132023820,2019-01-29,Thompson,"[('Toshika 750', 1), ('iAssist Line', 1), ('Alcon 10', 2)]",24445,89.6,-37.8173643,144.94601469999995,0,24534.6,Summer,True,0.5304,love it,True
ORD347179,ID4787778355,2019-11-18,Thompson,"[('Toshika 750', 1), ('Alcon 10', 1)]",13270,114.1,-37.7996429,144.926002,10,12057.1,Spring,True,2.3531,great phone. what an awesome phone. it is the best.,True
ORD403785,ID5402876187,2019-12-27,Nickolson,"[('Lucent 330S', 2), ('Olivia x460', 2), ('pearTV', 1)]",11220,70.78,-37.8204937,144.9767747,15,9607.78,Summer,False,0.6695,five stars it's awesome! the only problem so far is that i can't root it because it's too new.,True
ORD310549,ID0781083679,2019-12-23,Bakers,"[('Lucent 330S', 2), ('Thunder line', 1), ('Alcon 10', 2)]",22540,87.12,-37.8226366,145.01407450000005,15,19246.12,Summer,False,0.5434,five stars a gift that left the receiver excited,True
ORD391934,ID2021108591,2019-30-01,Thompson,"[('Olivia x460', 2), ('Candle Inferno', 2), ('iStream', 1)]",3460,61.42,-37.8095146,144.9579733,0,3521.42,Summer,False,1.0214,this phone is crap. dont buy. this phone is crap.,False
ORD381871,ID4887670700,2019-09-19,Thompson,"[('Toshika 750', 2), ('Universe Note', 2), ('Candle Inferno', 2)]",16400,106.74,-37.8216558,144.9350325,5,15686.74,spring,True,1.4561,great price love the new phone the screen much bigger then my old one great price and even came a lot sooner then expected,True
ORD286908,ID6197211474,2019-03-16,Thompson,"[('Thunder line', 1), ('Universe Note', 2)]",9080,66.95,-37.8132018,144.933495,10,8238.95,Autumn,False,1.1952,"rating should be 4.9 the phone is great, cost was even better, have not used the camera and probably never will. 220 volt brick with adapter is a little clonkey. definitely a quality phone. great sound on both ends.",True
ORD165991,ID6167191693,2019-10-16,Thompson,"[('Olivia x460', 1), ('iAssist Line', 2), ('Universe Note', 1)]",9125,101.65,-37.8187726,144.95489009999997,15,7857.9,Spring,False,0.9665,"great phone for the money my only complaints are the battery life, and the battery plug...it seems to get blown out and not be able to charge all that well. love everything else!",True
ORD121203,ID0255061153,2019-12-16,Nickolson,"[('Olivia x460', 2), ('Toshika 750', 2)]",11090,60.16,-37.8088814,144.9711115,10,6191.95,Summer,False,1.09,one star the phone goes in and out and lose signal easy its terrible.,False
ORD381323,ID1463620502,2019-07-14,Bakers,"[('Olivia x460', 2), ('Toshika 750', 2)]",16350,80.48,-37.8190572,145.0038094,10,10061.48,Winter,True,1.2595,"todo ok el teléfono 9.5/10 todo bien, me sirve perfecto en ecuador",True
ORD011836,ID6167289296,2019-13-02,Nickolson,"[('Lucent 330S', 2), ('Thunder line', 1), ('pearTV', 1)]",10950,82.28,-37.8094422,144.9639284,25,8294.78,Summer,True,1.1325,cell was in different langisht and not enoght memory said ... cell was in different langisht and not enoght memory said i was getting a 16 gb and it seems is 8 gbs. not happy,False
ORD407408,ID0260907393,2019-05-27,Bakers,"[('Lucent 330S', 2), ('iStream', 2), ('Universe Note', 2), ('Thunder line', 2)]",14020,69.82,-37.8273271,145.0130019,0,14089.82,Autumn,True,2.4827,bad battery the phone is conserved but the battery is not good. the seller should inform in the descriptions.,False
ORD431390,ID4342425839,2019-12-10,Nickolson,"[('pearTV', 1), ('iStream', 1)]",6460,82.76,-37.8255051,144.9803904,15,5573.76,Summer,True,1.2248,one star quit day 2.,False
ORD054585,ID3215192036,2019-04-14,Thompson,"[('Thunder line', 2), ('iAssist Line', 1), ('Universe Note', 1)]",10035,77.17,-37.8083225,144.9469841,10,9108.67,Autumn,True,0.4844,good job packaging and produst as exspected. nice job and thank you,False
ORD176896,ID1463547020,2019-02-04,Bakers,"[('Olivia x460', 2), ('pearTV', 2)]",15070,82.49,-37.818575,145.0052604,5,14398.99,Summer,True,1.565,"not the right phone! why is when i turned this phone on it wants att information?? i bought a unlocked s7 phone, not an att phone. advise.",False
ORD443412,ID0245537625,2019-02-15,Nickolson,"[('Lucent 330S', 2), ('Candle Inferno', 1), ('Olivia x460', 1)]",4115,59.5,-37.811034,144.9649253,10,3763.0,Summer,False,0.9348,google sucks really not happy with these phones. i made the mistake of buying two for my son's and i'm now getting them alcons instead!,False
ORD255831,ID1449266781,2019-05-17,Bakers,"[('iStream', 1), ('Alcon 10', 1), ('Olivia x460', 1), ('iAssist Line', 1)]",12550,51.74,-37.81663020000001,144.983921,15,10719.24,Autumn,True,1.2389,only got a box with no phone in it package arrived today with the s8+ box and all (charger etc) but no phone. i am so disappointed. payed this much for just a box! think twice before buying or end up having a bad time. hoping for a replacement or at least a refund because i purchased a phone not just a box.,False
ORD099167,ID0282852910,2019-05-01,Bakers,"[('iAssist Line', 1), ('Olivia x460', 2), ('Candle Inferno', 2), ('Toshika 750', 1)]",9855,68.5,145.0089533,-37.8005373,5,9430.75,Autumn,False,1.6016,"this tablet exceeded my expectations. strong processor, nice screen. wish it had bluetooth and was not so centered around digico gold.",True
ORD226751,ID0746912574,2019-07-20,Nickolson,"[('Alcon 10', 1), ('Lucent 330S', 1), ('Thunder line', 1), ('iAssist Line', 2)]",16810,80.75,-37.8242138,144.9832312,5,16050.25,Winter,True,1.2394,"my favorite phone in this price range my favorite phone in this price range. i iove huawei (currently using the mate 9), so i bought this p20 lite for my girlfriend who was looking for a new phone. she's really happy with it and so am i.",True
ORD005059,ID2318307720,2019-03-19,Nickolson,"[('pearTV', 1), ('iAssist Line', 1), ('iStream', 1), ('Candle Inferno', 1)]",9115,50.49,-37.8108065,144.9756299,15,7798.24,Autumn,False,1.0186,one star it was broken.,False
ORD377292,ID5000907912,2019-05-04,Thompson,"[('Thunder line', 2), ('Universe Note', 2)]",11260,48.65,-37.8100359,144.95157930000005,10,10182.65,Autumn,False,0.4935,"disgrace the phone i received is not unlocked and the sim card tray is missing, i expect a refund",False
ORD410547,ID6197211200,2019-04-20,Thompson,"[('Lucent 330S', 2), ('Candle Inferno', 1)]",2890,67.17,144.9318271,-37.816818100000006,10,2668.17,Autumn,False,1.4176,amazing fantastic upgrade works great and is fast it has a excellent camera,True
ORD313912,ID0846546192,2019-09-13,Nickolson,"[('Candle Inferno', 2), ('Toshika 750', 1), ('Alcon 10', 2), ('Universe Note', 1)]",26530,97.02,-37.81994279999999,144.96865469999997,0,26627.02,Spring,True,0.1695,help help my product doesn't work,True
ORD463147,ID4740822057,2019-04-30,Thompson,"[('Toshika 750', 2), ('Alcon 10', 1), ('Thunder line', 2), ('Olivia x460', 1)]",23175,65.43,-37.80352360000001,144.9498862,0,23240.43,autumn,False,1.0482,i love my note 8 i love my note 8! it takes awesome pictures and it's very fast. i love the live messaging feature and the screen is so big!,True
ORD352889,ID6245731106,2019-11-07,Nickolson,"[('Universe Note', 1), ('Alcon 10', 2)]",21350,103.76,-37.80976210000001,144.97591,10,19318.76,Spring,False,1.1312,"five stars perfect phone, if only the carrier could be this easy!",True
ORD461458,ID1492145825,2019-03-05,Thompson,"[('Universe Note', 1), ('Alcon 10', 1), ('Toshika 750', 2), ('pearTV', 2)]",33660,77.71,-37.81320460000001,144.95135269999997,5,32054.71,Autumn,True,0.3813,five stars pretty good,True
ORD474651,ID3085953528,2019-05-30,Nickolson,"[('Alcon 10', 1), ('Lucent 330S', 1)]",10180,78.52,-37.817437700000006,144.97681709999995,25,7713.52,winter,True,0.6518,"excellent. works great with t-mobile usa excellent phone, very responsive, works great with t-mobile usa. i have to yet try with a second sim abroad, so i reserve the right to amend my comment.",True
ORD443361,ID0418539889,2019-01-06,Bakers,"[('Lucent 330S', 1), ('iStream', 1)]",1380,97.24,-37.8214115,144.9892355,25,1132.24,Summer,True,1.3758,some things work better and some apps seem to be unavailable for android it's still an adjustment coming from an alcon. some things work better and some apps seem to be unavailable for android.,True
ORD144860,ID0844488785,2019-11-05,Thompson,"[('pearTV', 2), ('Olivia x460', 1), ('Candle Inferno', 2)]",14705,103.02,-37.8209034,144.9480676,0,14808.02,Spring,True,0.9204,great product,True
ORD143261,ID6167441036,2019-06-20,Nickolson,"[('Thunder line', 2), ('pearTV', 2)]",16980,77.98,-37.8102148,144.9614603,10,15359.98,Winter,True,0.6121,the entire family loves iassist thunder. she’s now a part of this family.,True
ORD322808,ID2325395493,2019-11-22,Thompson,"[('Candle Inferno', 2), ('Universe Note', 2)]",4660,103.59,-37.8084975,144.9589549,0,7863.59,Spring,True,1.144,"worth it for the price really good deal. just don't care about the warranty. if you buy us version aswell, they will ignore your warranty. for the price, it's the best.",True
ORD237111,ID6167191693,2019-01-20,Thompson,"[('Toshika 750', 2), ('pearTV', 2), ('iAssist Line', 1), ('Candle Inferno', 2)]",24345,73.42,-37.8187726,144.95489009999997,15,9425.22,Summer,False,0.9665,an amazing device!! an amazing device!,True
ORD037865,ID0287630690,2019-05-17,Thompson,"[('Alcon 10', 2), ('Candle Inferno', 2), ('Universe Note', 2)]",25660,49.64,-37.803075,144.9467764,15,21860.64,Autumn,False,1.0688,"had to return it as hulu does not work on device.  it kept coming up with errors, and hulu app not being able to open at times.  it was hit and miss, and at times, hulu will stop working right in the middle of a show or movie.  plus inferno stick is very slow in opening the apps.",False
ORD434933,ID0681284972,2019-11-05,Bakers,"[('Thunder line', 2), ('iAssist Line', 1), ('pearTV', 2), ('Lucent 330S', 1)]",20435,98.35,-37.81323920000001,144.9906576,25,15424.6,summer,True,0.5405,"pretty cool device. still have a lot to learn, but i'm changing channels on my fios, and getting info needed. the speaker is great for what i needed it for, which mainly is music.",True
ORD081245,ID0245537580,2019-03-06,Nickolson,"[('Lucent 330S', 2), ('Toshika 750', 1)]",6780,64.83,-37.8107604,144.96481630000005,10,6166.83,Autumn,True,0.9664,one star too many flaws,False
ORD217131,ID0591317279,2019-01-23,Nickolson,"[('Lucent 330S', 2), ('iAssist Line', 1), ('Candle Inferno', 2)]",5545,82.58,-37.8254328,144.95707190000005,15,4795.83,Summer,True,1.3355,"would not recommend this phone phone was defective. sound volume was set to maximum and you can barely hear it. after looking on toshika.com, seems this is a common problem for them. would not recommend this phone.",True
ORD177266,ID0153752520,2019-12-24,Nickolson,"[('Toshika 750', 1), ('Thunder line', 2), ('iAssist Line', 2), ('Candle Inferno', 2)]",13990,94.64,-37.8227713,144.9775766,15,11986.14,Summer,True,0.8451,all good price was great looks was great and works great,True
ORD244255,ID4633714544,2019-08-10,Thompson,"[('Lucent 330S', 1), ('iStream', 1), ('Candle Inferno', 1)]",2805,66.97,-37.8051937,144.94107409999995,5,2731.72,Winter,False,0.9855,it's good for doing a number of basic tasks. the digico underground feature is really cool. it feels like an android but more limited.,True
ORD480803,ID0302571121,2019-10-02,Bakers,"[('iStream', 1), ('Alcon 10', 1), ('Universe Note', 2)]",16000,91.88,-37.8023202,144.9789589,25,12091.88,Spring,True,1.6669,cellular connectivity issues i love the design and finish of this phone. but constant connectivity issues forced me to return it.,False
ORD484584,ID6167489432,2019-06-11,Thompson,"[('iAssist Line', 1), ('Lucent 330S', 1), ('Toshika 750', 2), ('Olivia x460', 2)]",14545,81.24,-37.811960600000006,144.9594735,0,14626.24,Winter,True,1.0938,i love everything about this tablet! the imaging is sharp and clear. it's fast and light weight. love it!,True
ORD298776,ID1597543248,2019-01-24,Nickolson,"[('iStream', 2), ('iAssist Line', 1), ('Universe Note', 1)]",5975,74.88,-37.8201693,144.9789384,15,5153.63,Summer,True,0.8439,"exceeds expectations does so much more than my universe 3, blazing fast with verizon, even fast internet. and fits in my front pocket just fine.",True
ORD354458,ID4520380478,2019-07-13,Nickolson,"[('pearTV', 1), ('Olivia x460', 2), ('Thunder line', 1)]",10940,61.08,-37.8197989,144.9612984,0,11001.08,Winter,True,0.738,one star not as should be,False
ORD185150,ID0060092157,2019-09-18,Nickolson,"[('Thunder line', 2), ('Candle Inferno', 1), ('Olivia x460', 1)]",6015,85.48,-37.8180463,144.9771669,15,5198.23,winter,True,0.6725,this is a single sim card device this is a single sim card device which the product description is not clearly indicated. i was disappointed and returned the phone immediately.,False
ORD134219,ID0363406538,2019-10-19,nickolson,"[('iStream', 1), ('Alcon 10', 2), ('pearTV', 2)]",30670,88.17,-37.7997929,144.96366930000005,25,23090.67,Spring,False,2.0463,great for the price and camera is the best moved from alcon to this. love the phone.,True
ORD436760,ID3098154901,2019-12-21,Thompson,"[('Alcon 10', 1), ('Olivia x460', 1), ('iStream', 1), ('Candle Inferno', 1)]",10755,78.49,144.94455630000004,-37.824645,5,10295.74,Summer,False,1.3509,this was a birthday gift to my husband. he really likes it and it does what he needs it to do,True
ORD083045,ID1833110294,2019-08-09,Nickolson,"[('iStream', 1), ('Olivia x460', 1)]",1375,73.04,-37.81684420000001,144.9693154,5,1379.29,Winter,False,0.196,"it works i use it for my work, but it is a few time to say if the product is good or not. until now is so good",True
ORD397811,ID3555802228,2019-09-25,Thompson,"[('iAssist Line', 2), ('iStream', 2), ('Olivia x460', 2)]",7200,80.58,-37.8058628,144.9366672,15,6200.58,Spring,False,1.1881,"five stars excellent product, it's unlocked i'm using it in venezuela.",True
ORD403794,ID2401378847,2019-12-12,Thompson,"[('Lucent 330S', 2), ('iStream', 1), ('Universe Note', 1), ('Candle Inferno', 1)]",5980,82.93,-37.8028637,144.92813,25,4950.43,Summer,False,1.9917,perfect execution this phone is awesome. i upgraded from an s4 mini. this company sent me a new phone with all the accessories in the original box exactly as adveertised. everything was super clean and untouched! i would recommend buying from this seller.,True
ORD279137,ID1283634746,2019-01-27,Thompson,"[('iAssist Line', 1), ('Universe Note', 2), ('pearTV', 2), ('Toshika 750', 2)]",30385,80.42,-37.8007651,144.95855480000003,15,17082.12,Summer,False,1.6666,brand new very nice phone,True
ORD192745,ID1463620801,2019-05-01,Bakers,"[('Thunder line', 2), ('Candle Inferno', 1), ('iStream', 1), ('Universe Note', 1)]",8390,67.34,-37.8165173,145.00563359999995,10,7618.34,Autumn,True,1.1678,love!,True
ORD098919,ID0054552193,2019-08-23,Nickolson,"[('Olivia x460', 2), ('iStream', 1), ('Candle Inferno', 1), ('iAssist Line', 2)]",7480,78.19,-37.82089000000001,144.9844083,15,6436.19,Winter,True,1.3312,"i am so impressed with this tablet. my seven year old loves its app, gaming and e-reader functions.",False
ORD490854,ID1283618016,2019-01-03,Thompson,"[('Candle Inferno', 2), ('iStream', 2), ('iAssist Line', 1)]",3385,99.58,-37.7990428,144.9540125,5,3315.33,Summer,True,1.6356,"three stars microphone issues cause speakerphone mode to garble comms... other than that, solid construction.",True
ORD371115,ID0575386093,2019-02-18,Nickolson,"[('iAssist Line', 2), ('Thunder line', 1), ('Alcon 10', 1)]",13550,80.25,-37.8206305,144.9832375,0,13630.25,Summer,True,1.2247,phones sold here are not unlocked!!! phones sold here are not unlocked!!! be aware before you order it may it may not work with your carrier !!! in my case i have a sprint line and the phone i received was with another carrier . i had to return it.,False
ORD271969,ID0092156538,2019-09-20,Nickolson,"[('Alcon 10', 2), ('Toshika 750', 2)]",26540,72.82,-37.8201849,144.96509419999995,5,25285.82,Spring,True,0.43,very happy!!! quisiera poder dar 1000⭐⭐⭐⭐⭐ demasiado bueno super feiliz,True
ORD131692,ID0248746684,2019-01-10,Bakers,"[('Lucent 330S', 1), ('Candle Inferno', 1), ('Olivia x460', 1), ('Toshika 750', 2)]",11525,92.9,-37.8167248,144.99431,5,9764.7,Summer,True,0.7534,best big screen phone 2018 nice & awesome big screen phone with loads of features to mention about.,True
ORD468791,ID0441031802,2019-07-05,Thompson,"[('iAssist Line', 2), ('Candle Inferno', 2)]",5310,64.33,-37.8135919,144.93780800000005,0,5374.33,Winter,False,0.8208,"as advertised the phone was shipped quickly and as described. a couple months in and i love this phone, especially for the price. does everything those $1k phones do for less than half the price. it's also a smaller phone which i prefer.",True
ORD412789,ID0052504557,2019-09-09,Thompson,"[('Candle Inferno', 1), ('Toshika 750', 2), ('Alcon 10', 1)]",18020,80.31,-37.8050581,144.9343681,5,17199.31,Spring,False,1.4022,"i love this phone i love this phone. it has great and reasonable features for the price. it has been over a year and still works as new and toshika keeps updating the phone, it gets better every time this was the best decision to buy toshika xperia ultra and not spend $800.",True
ORD072375,ID0340367480,2019-01-03,Bakers,"[('Candle Inferno', 2), ('Universe Note', 1), ('iAssist Line', 2), ('Toshika 750', 1)]",13080,59.43,-37.8178794,144.99298480000004,15,11177.43,Summer,False,0.8995,"es una estafa. resultó ser un dispate chino de mala calidad, me siento estafado.",False
ORD485609,ID0561538913,2019-01-27,Bakers,"[('Toshika 750', 1), ('Olivia x460', 2), ('pearTV', 2), ('Universe Note', 1)]",22840,99.81,-37.7983664,145.0014642,15,19513.81,Summer,True,1.4058,i really liked the build quality but the very lackluster performance and minuscule battery life didn't make it a keeper for me.,True
ORD441793,ID0591261651,2019-12-11,Nickolson,"[('iAssist Line', 1), ('Lucent 330S', 1), ('iStream', 2)]",3755,78.02,-37.8208702,144.9616045,5,3645.27,Summer,True,0.7433,poor no memory needs constant cleaning. poor choice,False
ORD307163,ID1095506178,2019-10-20,Bakers,"[('Thunder line', 1), ('iStream', 2), ('Toshika 750', 2), ('Olivia x460', 2)]",13570,105.31,-37.8000254,144.98595600000004,5,12996.81,Spring,True,1.3775,love olivia good battery life,True
ORD466215,ID0702374155,2019-12-15,Thompson,"[('Alcon 10', 2), ('pearTV', 2)]",30520,75.55,-37.80747150000001,144.94217709999995,5,29069.55,Summer,True,0.9715,"hard to use, lots of ads, and randomly closes apps",False
ORD258224,ID4769265353,2019-01-22,Bakers,"[('iStream', 2), ('Alcon 10', 1), ('iAssist Line', 2)]",13700,82.5,-37.8107895,145.0143841,0,13782.5,autumn,False,1.6867,love my droid 2 great phone,True
ORD295668,ID0634783944,2019-04-06,Thompson,"[('iStream', 1), ('Candle Inferno', 2), ('Toshika 750', 1), ('Universe Note', 1)]",8780,80.78,-37.8125054,144.9375284,0,8860.78,Autumn,True,0.8392,it is great upgrade. yes! it is working with safelink government cell phone in wa state. it is great upgrade.,True
ORD001539,ID0207078745,2019-05-24,Bakers,"[('Alcon 10', 2), ('Toshika 750', 1)]",17000,85.4,-37.8197918,145.01490280000004,5,21194.4,Autumn,True,2.0449,we love the candle inferno hd8. it can have various profiles to accomodate all people who uses it in our family household. it is also very easy to set up,True
ORD255521,ID0777783394,2019-05-12,Thompson,"[('pearTV', 2), ('Alcon 10', 1), ('Thunder line', 2)]",25930,64.93,-37.8048573,144.95320880000003,10,23401.93,Autumn,True,1.024,att the phone is in spectacular condition. however i ordered the att and recieved the verizon one.,False
ORD251290,ID4297530224,2019-01-19,Bakers,"[('pearTV', 2), ('Lucent 330S', 2), ('iStream', 2), ('Alcon 10', 2)]",39880,76.4,-37.8062675,144.9830142,0,39956.4,Summer,False,1.1519,"love the free month of service that came with been enjoying using this phone, love the free month of service that came with phone",True
ORD367768,ID0387153106,2019-04-17,Thompson,"[('Olivia x460', 1), ('iAssist Line', 2), ('Thunder line', 1), ('Candle Inferno', 1)]",8285,65.4,-37.8083929,144.955658,15,7107.65,Autumn,True,0.8931,buying renewed phone is risky great phone. purchased it renewed. unfortunately had to send it back to the seller since the phone randomly rebooted. the customer service was excellent.,True
ORD237539,ID0471441556,2019-11-20,Nickolson,"[('Toshika 750', 2), ('Alcon 10', 1)]",17590,93.0,-37.8044992,144.9684871,0,17683.0,Summer,True,1.5719,one star funciona mal.,False
ORD348568,ID0589306639,2019-12-08,Nickolson,"[('Toshika 750', 1), ('Olivia x460', 1), ('Thunder line', 1), ('Lucent 330S', 1)]",8955,57.54,-37.8106018,144.9718113,15,7669.29,Summer,False,0.9117,do not buy!! have only had this phone for 1 month and already it's not working. it shuts itself off all the time.,False
ORD307080,ID0774499329,2019-09-23,Thompson,"[('pearTV', 1), ('Candle Inferno', 2)]",7170,88.51,-37.8095139,144.9577448,25,5466.01,Spring,False,1.0026,black screen of death like other reviews on here.. i activated the phone and a week later it stopped working out of nowhere. it's 2019 this kind of stuff shouldn't happen to phones anymore!,False
ORD226726,ID0663120957,2019-06-13,bakers,"[('pearTV', 1), ('Alcon 10', 2), ('Universe Note', 1)]",27660,81.73,-37.8001524,144.9551627,0,27741.73,Winter,True,1.565,"quality and price may oldest son is very happy, the mobile has many features more than i expected",True
ORD216533,ID0575387776,2019-07-24,Nickolson,"[('iAssist Line', 2), ('Universe Note', 2)]",11350,64.91,-37.8196346,144.98499569999996,10,10279.91,Winter,True,1.3631,do not purchase the phone has a beak in the middle and it causes the pics to come out horrible.,False
ORD106779,ID3887190864,2019-07-28,Nickolson,"[('Toshika 750', 1), ('Olivia x460', 1), ('iAssist Line', 1)]",7770,77.71,144.9769001,-37.8168617,10,7070.71,Winter,True,0.6744,its the best quality flip phone what i got its the best quality flip phone what i got ! the phone don't broken fest i no have any problem with this phone,True
ORD343444,ID0591431246,2019-06-07,Nickolson,"[('Candle Inferno', 2), ('Toshika 750', 2)]",9500,57.67,-37.8177366,144.9669261,25,7182.67,Winter,True,0.2498,"brick phone after an update the phone stop working , waste of money , now i have a piece of plastic useless",False
ORD174075,ID2190566776,2019-04-12,Nickolson,"[('Lucent 330S', 2), ('Olivia x460', 1), ('Thunder line', 2)]",8045,65.71,-37.8172556,144.9645399,10,7306.21,Autumn,False,1.2247,five stars it works good than i expected. good job guys.,True
ORD228706,ID0777830142,2019-01-04,Thompson,"[('Olivia x460', 1), ('Universe Note', 1), ('Lucent 330S', 1)]",5905,85.1,-37.8030248,144.95780019999995,25,4513.85,Summer,True,0.7071,"not unlocked i had to return this phone after a trip to us cellular, a trip to at&t and a return trip to us cellular. no one could unlock this at&t locked phone. this is not factory unlocked. i did get a full refund.",False
ORD344957,ID0123349507,2019-08-24,Thompson,"[('Universe Note', 1), ('Lucent 330S', 2)]",7900,85.37,-37.7986482,144.9271207,0,7985.37,Winter,True,2.3485,... arrived quickly and was everything advertised phone is working great i do recommend phone arrived quickly and was everything advertised phone is working great i do recommend,True
ORD236856,ID0247689966,2019-07-14,nickolson,"[('Thunder line', 2), ('iStream', 1), ('Lucent 330S', 2), ('pearTV', 1)]",13280,73.45,-37.8177706,144.9722486,25,10033.45,Winter,True,0.2543,looks like brand new! i am very happy with this purchase. well packaged. not a scratch or dent on phone. i bought this phone for my son and he is very happy with every aspect it. altogether great experience.,True
ORD361453,ID0579478046,2019-12-17,Thompson,"[('Alcon 10', 1), ('Thunder line', 1), ('Lucent 330S', 2), ('Candle Inferno', 1)]",11220,96.23,-37.8206586,144.9539071,25,10611.23,Summer,True,1.0732,no good battery phone dies extremely fast but good for value,True
ORD156747,ID0844490764,2019-09-29,Thompson,"[('Toshika 750', 1), ('iStream', 2), ('pearTV', 2), ('iAssist Line', 2)]",21600,77.98,-37.8205969,144.9488156,0,21677.98,Spring,False,0.8953,four stars it's very good quality used phone.,True
ORD305237,ID0282854610,2019-01-08,Bakers,"[('iStream', 1), ('Candle Inferno', 1), ('Thunder line', 2), ('pearTV', 1)]",11250,107.61,-37.80334570000001,145.018623,5,11227.57,Summer,True,2.1864,five stars very nice olivia universe. does everything i want in a phone.,True
ORD372277,ID0581782794,2019-07-25,Thompson,"[('Candle Inferno', 1), ('Lucent 330S', 2), ('iStream', 2), ('Thunder line', 2)]",7550,65.44,-37.807684,144.94008280000003,15,6482.94,Winter,False,0.8282,great phone this is a great product.,True
ORD377306,ID2699015965,2019-06-27,Bakers,"[('Toshika 750', 2), ('Lucent 330S', 1), ('Alcon 10', 2)]",11090,65.86,-37.8016723,144.98492109999995,0,27835.86,Winter,True,1.2965,"worst product ever i'm from ecuador, i bought it because i was on vacation and i didn't have time to return it. the face id does not work. how is it possible to sell it like that? i've been robbed",False
ORD050784,ID0242400083,2019-08-04,Thompson,"[('pearTV', 1), ('iAssist Line', 2), ('Olivia x460', 1)]",11985,68.11,-37.821596,144.9307061,25,9056.86,Winter,False,1.7484,"easy to access the apps, but not always easy to quit. the device works good, but since it's the apps that make it what it is, more attention should be given to their operation. i was disappointed that it did not come with even a basic user's guide.",True
ORD405762,ID0259159111,2019-06-13,nickolson,"[('pearTV', 2), ('Thunder line', 2), ('iAssist Line', 2)]",21430,75.31,-37.8229075,144.9711835,25,16147.81,Winter,True,0.5011,five stars the is a very good and beautiful phone.,True
ORD003390,ID5402876178,2019-10-20,Nickolson,"[('iAssist Line', 2), ('Thunder line', 2)]",8810,101.31,-37.8204768,144.9771165,5,8470.81,Spring,True,0.6975,"barrage i have two of these and they are great, my husband's starting to get a little collateral damage and am shopping for a new one. buy it you will like it, if you are looking for one of those high class phones, this is not it, but it works well for what we need;",True
ORD380206,ID2189475426,2019-01-11,Nickolson,"[('Candle Inferno', 2), ('iAssist Line', 2), ('Alcon 10', 2), ('iStream', 2)]",22750,57.6,-37.8123039,144.9735149,5,22392.1,Summer,False,0.7823,cracked and does not turn on. the screen was cracked and the phone did not turn in after 24 hours of charging.,False
ORD400675,ID3146808104,2019-04-14,Bakers,"[('iAssist Line', 1), ('Candle Inferno', 2), ('pearTV', 2)]",15705,63.63,-37.8104063,144.99018590000003,15,13412.88,Autumn,False,0.4461,good buy! delivered on time. as stated from the description there was only package damage. the phone was in new condition and works perfectly. thank you!,True
ORD268965,ID5290706361,2019-12-07,Nickolson,"[('Universe Note', 1), ('Candle Inferno', 1), ('iAssist Line', 2), ('Alcon 10', 1)]",13980,78.53,-37.8081894,144.97663480000003,25,10563.53,Summer,False,1.3152,great phone item is exactly as described,True
ORD081401,ID0575374803,2019-05-02,Nickolson,"[('pearTV', 1), ('Olivia x460', 1)]",7535,79.37,-37.8193274,144.98359019999995,10,6860.87,Autumn,False,1.2372,very happy with my phone in my opinion hauwei is a high quality phone at a great price. it's easy to use and just as good as the higher priced phones. i get high quality pictures and easy access to the internet. i liked mine well enough that i bought one for my dad also,True
ORD090414,ID2183290170,2019-03-17,Thompson,"[('Universe Note', 2), ('iStream', 2), ('iAssist Line', 1)]",9425,80.84,-37.80726110000001,144.962779,5,9034.59,Autumn,True,1.3952,good very good,True
ORD222963,ID5290706350,2019-08-04,Nickolson,"[('pearTV', 1), ('Universe Note', 1)]",9760,67.86,-37.8083453,144.97661019999995,5,9339.86,Winter,False,1.2989,perfectly everything worked. appliance in optimum conditions.,True
ORD136574,ID5668009822,2019-05-30,Bakers,"[('Toshika 750', 2), ('Universe Note', 2), ('iStream', 1)]",15690,64.59,-37.8102184,145.009017,25,11832.09,Autumn,False,1.2126,"solid works perfectly. battery seems a little less powerful than expected, but still fine.",True
ORD347196,ID0298099373,2019-30-10,Bakers,"[('Toshika 750', 2), ('pearTV', 2)]",21260,111.66,-37.8006641,144.9757176,15,18182.66,Spring,True,2.0062,"awesome phone. this phone has a great battery life, light weight, and the large screen is phenomenal. i was happy to replace my alcon.",True
ORD203806,ID0575434489,2019-02-21,Nickolson,"[('iAssist Line', 1), ('Lucent 330S', 2)]",4685,76.42,144.98187219999997,-37.818821,5,4527.17,Summer,False,1.0838,nice!!! came in unlocked and working nicely.,True
ORD112077,ID2442297414,2019-01-27,Thompson,"[('Toshika 750', 2), ('Universe Note', 1), ('Lucent 330S', 1), ('iAssist Line', 1)]",8760,72.34,-37.8176281,144.95212560000004,0,15617.34,Summer,False,0.7085,love better than expected. really good phone. the cameras ate really good and it runs well haven't had any issues with it so far. only complaint is that it charges slow but that could just be my charger.,True
ORD483749,ID1280096200,2019-02-18,Thompson,"[('Lucent 330S', 2), ('Universe Note', 1)]",5910,86.87,-37.7936925,144.9475187,15,5110.37,Summer,False,2.1132,i do wish the line could connect to the inferno stick but both products still worked flawlessly,True
ORD400938,ID1463547115,2019-05-05,Bakers,"[('Toshika 750', 1), ('Alcon 10', 2), ('Thunder line', 1)]",24400,51.6,-37.818674,145.00522769999995,0,24451.6,Autumn,False,1.3061,"not the best phone buy new if you can battery life is bad abd speaker is breakingup bad, nobody can hear me smh good thing was year warranty",False
ORD035320,ID0331163549,2019-04-04,Nickolson,"[('iAssist Line', 2), ('Toshika 750', 1), ('Lucent 330S', 1), ('Alcon 10', 1)]",18950,71.52,-37.8000106,144.96848799999995,15,16179.02,Autumn,False,2.0709,dependable bought it for my brother. he loves it,True
ORD147522,ID0207093570,2019-06-04,Bakers,"[('Candle Inferno', 1), ('Olivia x460', 2), ('iStream', 1), ('Alcon 10', 2)]",20930,69.35,-37.8043044,145.0075602,10,18906.35,winter,False,1.2558,purchased the tablet because it was a very reasonable price. it has ended up being a good tablet.,True
ORD137909,ID0202761482,2019-12-18,Thompson,"[('iStream', 2), ('Olivia x460', 2), ('Thunder line', 2)]",7110,78.62,-37.8060912,144.9338228,5,6833.12,Summer,True,1.3762,good good,True
ORD092864,ID5002595089,2019-10-19,Thompson,"[('Universe Note', 1), ('Olivia x460', 2), ('iAssist Line', 2), ('Toshika 750', 2)]",18990,75.23,-37.8123896,144.9537134,10,12281.72,Spring,False,0.5852,very nice so far its a much quicker phone than my last,True
ORD120433,ID0294625486,2019-03-20,Nickolson,"[('Thunder line', 1), ('Universe Note', 2), ('iAssist Line', 2)]",13530,62.57,-37.8190725,144.964908,10,12239.57,Autumn,True,0.4117,"terrible decision i had this phone for 24 hrs. by the time i took it back, i absolutely hated it!!! without a how-to guide, this type of phone is absolutely useless!!! i'll stick with my jitterbug!!! (i'd give it 0 stars, or negative stars even,but you can't.)",False
ORD080262,ID3394725369,2019-11-03,Nickolson,"[('Toshika 750', 1), ('Universe Note', 2)]",11220,102.78,-37.8149291,144.9605095,25,8517.78,Spring,False,0.8937,great purchase this phone came in beautiful condition and so far works perfectly. glad i decided to purchase here.,True
ORD414583,ID2174963254,08-05-2019,Thompson,"[('Universe Note', 1), ('Candle Inferno', 2), ('Lucent 330S', 1)]",5540,79.96,-37.8208542,144.95492130000005,0,5619.96,Autumn,True,1.1429,five stars very good!,True
ORD002894,ID1668523155,2019-12-12,Thompson,"[('Universe Note', 2), ('Thunder line', 2)]",11260,87.66,-37.81342410000001,144.9444378,10,10221.66,Summer,True,0.246,i had bought this tablet for my sister who is wheel chair bound or she lays in her bed. she gets a lot of joy from using the tablet.its big screen helps her see things better.,True
ORD250351,ID1463620941,2019-10-09,Bakers,"[('Alcon 10', 2), ('Toshika 750', 2), ('pearTV', 1)]",32850,81.07,-37.81488770000001,145.0076372,10,29646.07,Spring,False,1.2372,"great product & company we bought 2 used note3 & neither one had any problems, flaws or scratches. they work great & the price was great! the company promptly got them to us within 3 days. i would recommend this product and company to anyone.",True
ORD025636,ID6222911352,2019-03-02,Bakers,"[('Candle Inferno', 2), ('Lucent 330S', 2), ('iStream', 2), ('iAssist Line', 1)]",5845,55.36,-37.8202411,145.0151131,0,5900.36,summer,False,2.0874,basura no sirven de rompen rapido,False
ORD023873,ID3215102056,2019-11-15,Thompson,"[('iStream', 1), ('Toshika 750', 1), ('Thunder line', 1)]",6650,99.05,-37.8119517,144.9513726,15,5751.55,Spring,True,0.3869,loving my new olivia s8 i went in the water and i got an error when about to charge (moisture detected) but i researched how to fix it on youtube and it's working fine now - takes really nice pics! upgraded from s5 to s8 - pleased!,True
ORD201604,ID3215192029,2019-03-18,Thompson,"[('Alcon 10', 2), ('iAssist Line', 2), ('Universe Note', 1), ('Thunder line', 1)]",8990,64.27,-37.808741,144.9464356,25,21049.27,Autumn,False,0.4413,"very nice phone i've been using this phone for over 6 months now and this is a great phone. it hasn't slowed down, and the battery still lasts all day. the pen is very handy sometimes for editing photos or copying text",True
ORD294979,ID0033675544,2019-04-08,Thompson,"[('Toshika 750', 1), ('Universe Note', 1), ('Lucent 330S', 2), ('Candle Inferno', 2)]",11090,65.55,-37.8088956,144.9577571,25,8383.05,Autumn,False,1.0297,five stars nice phone!,True
ORD052465,ID0131107628,2019-09-24,Nickolson,"[('Thunder line', 1), ('Alcon 10', 2), ('Universe Note', 1), ('Toshika 750', 2)]",32170,89.81,-37.8146506,144.9593159,15,27434.31,Spring,False,1.0014,two stars poor gps - almost not functional - and poor battery - i need to recharge every 8 hours,False
ORD140436,ID0129279833,2019-12-11,Bakers,"[('iAssist Line', 1), ('iStream', 2)]",2525,58.77,-37.8020804,144.9950531,15,2205.02,Summer,True,0.8813,"i want my money back so, i bought this phone to use for a byod and it worked fine. for 3 days until i didn’t have service. i have factory reset it twice today and it will not connect to my service provider. battery life is ok, a few scratches, but the fact that it will not connect is obviously a huge deal and i am very disappointed.",False
ORD361581,ID0247533245,2019-12-27,Thompson,"[('Candle Inferno', 2), ('Alcon 10', 1), ('Universe Note', 1), ('iAssist Line', 2)]",17710,88.23,-37.816592,144.9497232,15,15141.73,Summer,True,1.4365,"no issues with this phone at all, love our purchase works well; very satisfied",True
ORD475913,ID6167441045,2019-02-07,Nickolson,"[('Lucent 330S', 1), ('pearTV', 1), ('iAssist Line', 2)]",11990,96.05,-37.8112445,144.9618019,15,10287.55,Summer,True,1.0648,lte usa support update from what i was able to find out that this model supports lte bands for tmobile and att. i bought one it will arrive on wednesday. will report back just got phone and it does have lte support for tmobile and att,True
ORD444815,ID0641030470,2019-10-26,Thompson,"[('Olivia x460', 2), ('Universe Note', 1), ('iAssist Line', 1)]",8125,84.91,-37.8096965,144.938704,5,7803.66,Spring,False,0.8068,"not an honest seller i bought this phone and when i went to set it up, nothing connected. took it to a phone repair and they said it was a company phone and will never be unlocked. this is basically a paper weight. seller never mentioned any of this and now i’m stuck with this useless phone. i do not recommend buying from them.",False
ORD330237,ID0412776176,2019-02-01,Bakers,"[('Alcon 10', 2), ('Universe Note', 2)]",24800,66.16,-37.81177879999999,144.9957427,10,22386.16,Summer,False,0.2035,great budget cellphone great cell phone on the price range,True
ORD209672,ID0711334295,2019-08-26,Thompson,"[('Candle Inferno', 1), ('pearTV', 2), ('Universe Note', 1)]",16500,52.59,-37.8065665,144.95933290000005,5,15727.59,Winter,False,1.2749,no support window open? useless no support window open? i just bought this phone in june and it is already useless. the touch pad is dead and the charger went out. what are you going to do for me???,False
ORD255461,ID4299936439,2019-03-16,Bakers,"[('pearTV', 1), ('iAssist Line', 1)]",8535,84.22,-37.8165505,145.0093423,0,17683.0,Autumn,True,1.4395,five stars love it,True
ORD216129,ID0746912563,2019-06-08,Nickolson,"[('Candle Inferno', 1), ('Alcon 10', 2), ('pearTV', 2)]",11220,79.53,-37.8246131,144.982916,10,27934.53,Winter,True,1.3527,"i got lucky refurb was as new, but screen slow to respond occasionally. and languages don’t always hold. may just be a 6s glitch",True
ORD106524,ID0299026739,2019-07-07,Bakers,"[('Lucent 330S', 2), ('iStream', 2), ('Olivia x460', 2)]",5210,70.23,-37.8017477,145.01116090000005,25,3977.73,Winter,False,1.675,five stars easy to use,True
ORD198511,ID0571457502,2019-03-18,Thompson,"[('Thunder line', 2), ('Lucent 330S', 2)]",6820,63.82,144.94466719999997,-37.8149435,10,6201.82,Autumn,False,0.3294,"awesome the lumia 900 is a nice phone, it is higher level of phone, well built, nice looking, my dad is using this phone and now im looking forward to get the lumia 920, i know for sure that the 920 is out of this world!!!!",True
ORD254949,ID0591317288,2019-11-28,Nickolson,"[('pearTV', 1), ('Olivia x460', 2)]",8760,80.36,-37.8252803,144.95722450000005,0,8840.36,Spring,True,1.3148,as advertised just like it.,True
ORD112316,ID1458418027,2019-01-26,Bakers,"[('pearTV', 2), ('Toshika 750', 1), ('Universe Note', 1), ('Candle Inferno', 2)]",21250,81.47,-37.8193363,145.00731480000005,15,18143.97,Summer,False,1.4866,great deal! excellent condition. little to no marks. functioning properly.,True
ORD216966,ID0282825761,2019-12-20,Thompson,"[('iAssist Line', 2), ('Toshika 750', 1)]",8770,78.21,-37.8022987,144.9522544,5,8409.71,Summer,False,1.2416,"happy, happy inexpensive upgrade! this was a great way to upgrade. had tried 2 other 8 plus phones from another company but both had problems. wanted to upgrade to ios 13. maybe the phone—maybe the company? this 7 plus is a great buy and works perfectly.",True
ORD289246,ID3481124176,2019-05-02,Nickolson,"[('Candle Inferno', 2), ('iStream', 2), ('Alcon 10', 2)]",19060,61.61,-37.8178761,144.9673113,10,17215.61,Autumn,True,0.2126,"garbage. total garbage. dead speaker. can't make or receive calls. only worked for sending and receiving text messages. typical htc useless, unreliable trash.",False
ORD365615,ID0458610340,2019-07-20,Nickolson,"[('Universe Note', 1), ('pearTV', 1)]",9760,47.55,-37.8161914,144.9770399,0,9807.55,Winter,False,0.7108,"unusable phone was cleary used and wont let me log in unless i have previous owner's gmail, which is impossible to get. terrible purchase and waste of money.",False
ORD372483,ID1224869075,2019-10-08,Thompson,"[('iStream', 2), ('Thunder line', 2)]",4660,98.83,-37.8127591,144.9413676,15,4059.83,Winter,True,0.5015,seems to work great! i got this for my mother and she said she loved it! always go olivia! i've never been let down lol!,True
ORD473036,ID0305912803,2019-11-20,Bakers,"[('Alcon 10', 1), ('pearTV', 1)]",15260,64.17,-37.7994685,145.0048879,15,13035.17,Spring,False,1.4473,one star this is not unlocked for the browser,False
ORD067328,ID2702095679,2019-05-08,Bakers,"[('iStream', 2), ('Olivia x460', 1), ('Universe Note', 1)]",4975,62.15,-37.8110053,144.9901675,15,4290.9,Autumn,False,0.4593,"the phone is a great phone, however the phone is a great phone, however, this one specifically has bad reception. my old phone, i could get service nearly anywhere; this one, i don't even get phone calls in my own house. other than that, the phone has been great.",True
ORD133663,ID6197211483,2019-09-27,Thompson,"[('Thunder line', 1), ('Candle Inferno', 1)]",2610,65.82,-37.8143826,144.9328127,25,9703.63,Spring,False,1.2681,"two stars no packing slip, no receipt with the order, would it be a legit product?",False
ORD156902,ID3967630093,2019-10-08,Thompson,"[('Alcon 10', 2), ('Toshika 750', 2)]",26540,86.32,-37.818304,144.9524117,25,19991.32,Spring,True,0.7833,"i can't return through best buy, because it's over 15 days. started out ok, but then it just stopped working. it keeps freezing at home screen and i can't access anything. extremely disappointed.",False
ORD188361,ID2213981040,2019-01-17,Bakers,"[('Alcon 10', 1), ('iStream', 1), ('Candle Inferno', 2), ('pearTV', 1)]",16270,77.68,-37.80200900000001,144.98377,0,16347.68,Summer,False,1.3442,wish it came with earphones. great phone. shipped without earphones.,True
ORD274834,ID0493873180,2019-12-25,Nickolson,"[('iAssist Line', 2), ('pearTV', 1), ('Lucent 330S', 1), ('Thunder line', 2)]",16350,84.37,144.9696091,-37.804956,5,15616.87,Summer,True,1.5183,purchased 4 refurbished from day one speakers on one are ... purchased 4 refurbished from day one speakers on one are not working on another the screen has frozen in less then a month.,False
ORD054148,ID5002595141,2019-05-08,Thompson,"[('pearTV', 1), ('iStream', 1), ('Lucent 330S', 1)]",30385,63.91,-37.8117421,144.95340380000005,25,5831.41,Autumn,False,0.5667,great phone the phone is truly amazing and very durable. i cannot keep it off my hands. i have the yellow color and i love it. this is the phone for the future and very well made.,True
ORD022567,ID0621539578,2019-07-24,Nickolson,"[('iAssist Line', 1), ('pearTV', 1), ('Olivia x460', 1), ('Lucent 330S', 2)]",14860,64.86,-37.81438060000001,144.9597841,15,12695.86,Winter,False,0.9787,"i recommend this seller 💯%. sorry, this video is unsupported on this browser.  the alcon it came on time, came very neat it only had 1 minor scratch by the speaker but the rest of the alcon is in great condition also included a temper glass awesome no needed to buy one👌🏼.",True
ORD319465,ID4716795854,2019-12-04,Thompson,"[('iAssist Line', 2), ('Candle Inferno', 2), ('Universe Note', 2)]",12210,73.75,-37.8188112,144.9533734,10,11062.75,Summer,True,0.8799,looks brand new. easy set up very pleased!! will be buying from this seller again when i buy my next upgrade (which will be very soon). looks brand new. easy set up with my phone carrier over the phone,True
ORD274484,ID3212024930,2019-09-26,Thompson,"[('Toshika 750', 1), ('Alcon 10', 1), ('Thunder line', 2), ('iAssist Line', 2)]",22080,60.66,144.9486081,-37.80727879999999,25,16620.66,Spring,False,0.6156,their customer service is horrible. i returned it to digico junk. net 10 couldn't even get it to work or load minutes. one tech said it was used previously. avoid all net 10 phones in my opinion. their customer service is horrible. i returned it to digico.,False
ORD359208,ID3240572178,2019-07-12,Thompson,"[('pearTV', 2), ('Thunder line', 1), ('Candle Inferno', 1)]",15230,82.01,-37.8054934,144.92967130000005,10,13789.01,Winter,True,1.7262,phone is slower than i would like. phone isn't as responsive as i would like.,False
ORD053194,ID0026034577,2019-07-20,Thompson,"[('Alcon 10', 2), ('iAssist Line', 1), ('Thunder line', 1)]",22305,65.33,-37.806775,144.9513141,10,20139.83,Winter,False,0.7553,"cell arrived in perfect condition however i do not get the color you ... cell arrived in perfect condition however i do not get the color you requested, i wanted to get black and blue.",True
ORD212612,ID0781083679,2019-03-30,Bakers,"[('Olivia x460', 2), ('iAssist Line', 1)]",4675,55.91,-37.8226366,145.01407450000005,15,4029.66,Autumn,False,2.1738,no receiving calls!!! we are unable to receive calls. we can call out but no one can call in.,False
ORD277308,ID0582800631,2019-01-19,Nickolson,"[('Lucent 330S', 2), ('Olivia x460', 1)]",3685,70.46,-37.8181804,144.9758986,5,3571.21,Summer,True,0.5601,great phone at great prices its looked brand new rigjt out the box and works like new also,True
ORD048867,ID0702460953,2019-08-14,Thompson,"[('Thunder line', 2), ('Lucent 330S', 2), ('pearTV', 1), ('Alcon 10', 2)]",31030,62.0,-37.8052165,144.9492987,10,27989.0,Winter,False,0.8529,"dead on arrival, battery expanded and back of phone came off $400 for a dead international phone with a useless plug for another country and a defective battery. my last digico services phone purchase.",False
ORD107283,ID0575434451,2019-07-01,Nickolson,"[('Lucent 330S', 2), ('Universe Note', 1)]",5910,79.8,-37.8196865,144.9852639,25,4512.3,Winter,True,1.387,good as offer 😀 good as expected. fast deliver.,True
ORD005048,ID4135567060,2019-05-01,Thompson,"[('iAssist Line', 2), ('pearTV', 1), ('Lucent 330S', 1), ('Toshika 750', 1)]",16310,65.38,-37.8149888,144.9530379,25,24534.6,Autumn,False,0.5848,"five stars so far so good, totally satisfied.",True
ORD314657,ID2190483584,2019-03-13,Thompson,"[('iAssist Line', 2), ('Olivia x460', 1), ('Toshika 750', 1)]",9995,66.94,-37.809257,144.9607912,5,9562.19,Autumn,False,1.2653,awesome very good.,True
ORD360424,ID3208518278,2019-01-11,Nickolson,"[('pearTV', 2), ('Alcon 10', 2), ('Toshika 750', 1)]",34840,101.1,-37.80389829999999,144.96749780000005,10,31457.1,Summer,False,1.6459,good deal im having it for 10 days and i love it,True
ORD265531,ID2185303472,2019-09-07,Thompson,"[('pearTV', 2), ('iAssist Line', 1), ('Thunder line', 2)]",19205,109.59,-37.79883579999999,144.9358923,5,3331.52,Spring,True,1.8273,very good. l bought for my son and he like ... very good.l bought for my son and he like it.,True
ORD313514,ID5002592915,2019-09-08,Thompson,"[('Lucent 330S', 1), ('Thunder line', 1), ('pearTV', 2)]",16030,74.39,-37.8121097,144.9518655,25,12096.89,Spring,False,0.4265,god quality great phone....very basic and just what i need!!,True
ORD066234,ID1463620868,2019-02-25,Bakers,"[('Thunder line', 1), ('pearTV', 2), ('Candle Inferno', 1), ('Lucent 330S', 2)]",17690,73.07,-37.81609470000001,145.0013127,10,15994.07,Summer,False,0.8642,four stars the battery seems to not hold the charge well,True
ORD211070,ID3810929408,2019-21-06,Bakers,"[('Olivia x460', 1), ('iAssist Line', 2), ('iStream', 1), ('Lucent 330S', 1)]",7055,69.01,-37.8239721,144.99108959999995,0,7124.01,Winter,False,1.5978,just what i expected just what i expected. my wife is very happy with this phone.,True
